SITE,ST_NAME,YEAR,REGION,PHYSIO,COUNTY,BASIN,SEGMENT,ORDER,SAMP_SPR,DATE_SPR,SAMP_SUM,DATE_SUM,LAT,LONG,NORTHING,EASTING,SHEDCODE,SHEDNAME,TEMP_FLD,DO_FLD,PH_LAB,PH_FLD,COND_LAB,COND_FLD,ANC_LAB,DOC_LAB,NO3_LAB,SO4_LAB,ACIDSRC,INSTRHAB,EPI_SUB,VEL_DPTH,POOLQUAL,RIFFQUAL,CHAN_ALT,BANKSTAB,EMBEDDED,CH_FLOW,SHADING,REMOTE,AESTHET,WOOD_DEB,NUMROOT,RIP_WID,BUFF_TYP,ADJ_COVR,MAXDEPTH,ST_GRAD,AVGWID,AVGTHAL,AVG_VEL,FLOW,ACREAGE,URBAN,AGRI,FOREST,WETLANDS,BARREN,WATER,HIGHURB,LOWURB,PASTUR,PROBCROP,ROWCROP,CONIFER,DECIDFOR,MIXEDFOR,EMERGWET,WOODYWET,COALMINE,TRANS,PHI,BKTRFLAG,BLACKWAT,STRATA_R,FIBI_98,BIBI_98,HILSNHOF
AA-N-012-110-97,MUDDY CR,97,C,N,AA,WC,110,1,Y,3/31/1997,Y,7/21/1997,38.868,76.608,377173,911723,2131004,West River,21,7.8,6.87,7.56,250.4,335,555.7,2.5,0.54,31.37,none,6,4,4,6,7,7,8,90,85,50,6,9,0,0,5,OF,PA,9,1,0.95,4.75,0.01,0.1,255.63,9.72,37.53,52.17,0,0,0,1.2,8.52,9.85,17.97,9.72,0.27,45.25,6.65,0,0,0,0,6.89,0,0,COASTAL,,1,5.41573
AA-N-020-124-96,SLOOP COVE UT1,96,C,N,AA,PP,124,1,Y,3/6/1996,Y,6/4/1996,39.147,76.562,478813,924123,2130903,Baltimore Harbor,15.2,6.5,5.75,6.15,157.7,161,55.9,4.9,0.26,20.6,AD,12,1,3,9,2,4,9,100,90,95,6,1,3,0,0,,SL,43,1,1.63,20.75,0.075,0.22,162,11.11,16.67,70.99,0,0,0,0,11.11,0,16.67,0,20.99,26.54,22.22,0,1.23,0,0,13.03,0,0,COASTAL,,1.57,3.38095
AA-N-021-112-97,STOCKETT'S RUN,97,C,N,AA,PX,112,1,Y,3/6/1997,Y,6/30/1997,38.889,76.623,384670,907233,2131104,Patuxent River (Upper),20.1,8.4,6.69,7.41,139.7,184,253.2,2.6,1.12,22.83,none,7,5,13,12,11,10,6,35,80,80,14,12,6,1,50,FR,FR,67,0.07,3.78,25.25,0.1,0.56,1487.18,1.21,51.25,47.45,0.02,0,0.21,0.07,1.14,16.86,22.1,12.29,0.78,40.95,4.64,0.02,1.08,0,0,63.87,0,0,COASTAL,3,2.71,5.37778
AA-N-030-223-95,DEEP RUN UT1,95,C,N,AA,PP,223,2,Y,3/23/1995,Y,7/24/1995,39.170319,76.754169,487002,869698,2130906,Patapsco River Lower North Branch,21.8,7.7,7.08,7.5,176.7,200,385.44,3,1.3,21.68,none,17,13,11,17,7,11,10,25,75,80,6,6,11,3,0,,PA,57,0.8,3.2,24.75,0.1475,0.46,1174.86,11.55,15.61,72.6,0.2,0.14,0,2.81,8.75,2.09,12.08,1.45,8.28,53.37,9.38,0.2,1.56,0,0.14,84.18,0,0,COASTAL,4.25,3.86,5.73034
AA-N-034-206-97,MILL CR,97,C,N,AA,WC,206,2,Y,3/26/1997,Y,7/28/1997,39.018,76.48,431935,947883,2131002,Severn River,23.4,5.6,6.79,6.47,112.7,106,301,4.7,0.58,5.52,none,15,16,12,17,17,10,13,85,95,80,6,5,6,5,50,FR,FR,75,0.8,2.95,57.25,0.05,1.55,1442.56,17.69,6.79,75,0.26,0,0.16,1.6,16.09,1.37,4.53,0.9,4.15,50.14,18.56,0.26,2.15,0,0,73.95,0,0,COASTAL,3,1.57,6.16901
AA-N-063-232-97,DORSEY RUN,97,C,N,AA,PX,232,2,Y,4/1/1997,Y,7/21/1997,39.129,76.774,471961,864160,2131105,Little Patuxent River,20.8,1.2,6.72,6.88,161.1,8,232.9,5,0.37,18.33,none,15,13,6,16,7,5,4,40,50,85,10,12,4,3,15,FR,LN,77,1,2.38,22.25,0,0,750.23,9.84,14.2,72.47,0.18,3.18,0.09,0.45,9.39,2.9,7.17,4.13,11.16,49.02,11.93,0.18,0.36,0,3.18,76.41,0,0,COASTAL,4.25,2.14,3.85484
AA-N-072-103-97,TARNANS BR,97,C,N,AA,WC,103,1,Y,3/26/1997,Y,7/9/1997,38.969,76.633,413912,904352,2131003,South River,24.4,7.5,6.6,6.71,226.8,230,226.4,3.9,0.39,18.06,none,12,11,10,12,14,6,3,70,75,70,5,10,4,1,21,FR,LN,42,1,3.2,16.75,0.1675,0.96,947.54,6.5,50.63,41.9,0.18,0,0.9,0.47,6.03,15.73,27,7.9,5.13,28.55,6.86,0.18,1.36,0,0,50.47,0,0,COASTAL,4,2.14,6.25
AA-N-075-122-97,BACON RIDGE BR UT1 TO UT1,97,C,N,AA,WC,122,1,Y,4/23/1997,Y,7/9/1997,39.042222,76.626389,440470,906117,2131003,South River,19.2,7.6,5.65,6.16,71.1,243,43.8,1.5,0.28,16.92,AD,5,3,3,3,6,5,18,100,80,90,6,3,0,0,50,FR,FR,6,1,0.48,3,0.01,0.04,28.74,0,10.65,91.13,0,0,0,0,0,1.18,8.28,1.18,4.73,65.1,21.29,0,0,0,0,2.59,0,0,COASTAL,,1.86,3.32609
AA-N-091-303-97,SEVERN RUN,97,C,N,AA,WC,303,3,Y,3/27/1997,Y,8/6/1997,39.108,76.659997,464524,896450,2131002,Severn River,18,7.9,7.01,7.13,159.5,157,463,4.8,0.76,14.76,none,16,17,14,18,16,9,12,95,90,70,18,17,20,6,50,FR,FR,98,0.6,4.2,60,0.165,4.7,7339.18,30.73,18.02,45.68,0.32,5.17,0.12,4.83,25.9,1.59,15.61,0.83,13.27,19.15,9.49,0.32,3.76,0.07,5.09,90.79,0,0,COASTAL,3,3.57,4.28571
AA-N-091-305-97,SEVERN RUN,97,C,N,AA,WC,305,3,Y,3/25/1997,Y,8/5/1997,39.109,76.654,464639,898059,2131002,Severn River,19.1,8.2,7.18,7.23,171.4,167,453.7,3.2,1.04,15.17,none,10,11,17,15,17,10,10,100,99,75,17,18,15,3,50,FR,FR,91,0.9,3.95,52.75,0.1775,5.13,7492.45,30.1,18.09,46.13,0.31,5.31,0.12,4.73,25.37,1.85,15.43,0.81,13.38,19.18,9.63,0.31,3.93,0.07,5.24,82.49,0,0,COASTAL,3,3.29,4.75
AA-N-091-314-97,SEVERN RUN,97,C,N,AA,WC,314,3,Y,3/25/1997,Y,7/31/1997,39.108,76.648,464227,899982,2131002,Severn River,18.5,8.7,7.31,7.22,171.6,154,447,3.6,1.1,15.36,none,17,16,17,18,16,4,11,95,95,65,17,19,13,9,50,FR,FR,120,0.9,4.63,28.5,0.1525,6,7954.98,28.37,19.09,46.07,0.3,6.06,0.12,4.46,23.92,2.72,15.61,0.76,13.4,19.16,9.68,0.3,3.84,0.1,5.95,95.61,0,0,COASTAL,3,3.29,5.07813
AA-N-091-320-97,SEVERN RUN,97,C,N,AA,WC,320,3,Y,4/3/1997,Y,8/5/1997,39.108075,76.656622,464420,897440,2131002,Severn River,20.9,8.4,7.09,7.36,166.5,160,513.9,5.2,0.86,13.26,none,13,15,10,17,16,9,7,100,90,70,19,17,17,4,50,FR,FR,100,0.6,4.78,59.25,0.1,5.95,7434.73,30.33,18.09,46.03,0.31,5.17,0.11,4.77,25.56,1.79,15.48,0.81,13.45,19.09,9.59,0.31,3.9,0.07,5.09,79.8,0,0,COASTAL,2.5,3,4.09756
AA-N-092-207-97,MIDWAY BR,97,C,N,AA,PX,207,2,Y,3/31/1997,Y,6/18/1997,39.099,76.745,460949,872312,2131105,Little Patuxent River,17.2,11.2,6.71,6.44,215.3,274,563.6,6.3,1.08,17.45,none,6,10,14,15,13,13,9,40,90,30,1,13,0,0,22,LN,PV,62,0.7,3.1,37,0.1475,1.39,1632.48,37.04,30.78,31.97,0.08,0.17,0.04,3.44,33.6,13.86,11.19,5.73,8.92,16.49,5.75,0.08,0.81,0,0.17,69.95,0,0,COASTAL,2.5,1,7.28571
AA-N-092-225-97,MIDWAY BR,97,C,N,AA,PX,225,2,Y,3/31/1997,Y,6/18/1997,39.094,76.744,459269,872638,2131105,Little Patuxent River,17.2,11.1,6.87,6.77,224.7,282,614.5,6.3,1.03,16.9,none,6,11,15,13,14,1,20,26,83,41,3,3,0,0,0,,SL,74,0.9,3.13,20.25,0.2125,1.38,1765.89,38.8,31.16,29.88,0.08,0.15,0.04,3.99,34.82,14.24,10.64,6.28,8.46,15.34,5.34,0.08,0.75,0,0.15,61.55,0,0,COASTAL,2.5,1.29,6.88889
AA-N-104-114-95,MARLEY  CR UT1,95,C,N,AA,PP,114,1,Y,3/23/1995,Y,7/5/1995,39.130019,76.63355,472440,903953,2130903,Baltimore Harbor,23.1,5.4,6.9,6.78,334,326,1038.95,5,0.93,19.16,none,6,4,6,11,8,7,7,80,90,55,6,6,6,0,15,FR,HO,52,0.4,1.13,12,0.045,0.06,309.76,67,9.78,1.76,0.55,20.87,0,28.01,38.99,2.42,7.25,0.11,0.88,0.55,0.33,0.55,0,0,20.87,19.56,0,0,COASTAL,2,1.57,7.13889
AA-N-120-102-97,BLACKHOLE CR,97,C,N,AA,WC,102,1,Y,3/26/1997,Y,7/23/1997,39.092,76.498,458847,942456,2131001,Magothy River,19.1,0.7,4,5.84,91.1,198,-108.8,4.6,0.18,15.87,AD,9,6,1,8,0,16,18,98,50,90,5,8,2,1,15,FR,HO,45,0.6,1.55,18.5,0,0,406.88,0,21.41,78.44,0.08,0,0,0,0,0.33,21.07,0,11.37,51.68,10.12,0.08,5.27,0,0,10.62,0,0,COASTAL,1.75,1.29,7.29167
AA-N-126-306-95,SAWMILL CR,95,C,N,AA,PP,306,3,Y,3/23/1995,Y,8/10/1995,39.181139,76.62045,491073,907593,2130903,Baltimore Harbor,20.2,8.4,6.77,7.02,272,280,714.82,6,1.4,21.85,none,12,10,16,17,5,15,10,50,95,75,5,12,4,2,0,,HO,87,0.7,4.6,37.75,0.3025,5.02,5224.04,45.79,14.35,20.75,0.46,18.51,0.08,10.95,34.84,1.4,11.58,1.37,6.19,9.01,3.57,0.46,1.99,0,18.51,88.67,0,0,COASTAL,3,2.43,6.15
AA-N-135-301-97,SEVERN RUN,97,C,N,AA,WC,301,3,Y,3/27/1997,Y,8/6/1997,39.109,76.671,464595,893325,2131002,Severn River,20.6,7.6,7.14,7.44,176.7,179,598.7,4.5,0.83,14.18,none,10,10,10,13,14,10,14,100,99,50,19,9,8,4,50,FR,FR,85,0.8,3.83,49.25,0.1275,4.45,4910.37,30.97,16.15,45.34,0.19,7.3,0.11,5.29,25.68,1.73,13.36,1.07,11.04,21.27,9.17,0.19,3.85,0.11,7.19,49.92,0,0,COASTAL,3.25,2.71,4.15217
AA-N-152-304-97,DORSEY RUN,97,C,N,AA,PX,304,3,Y,4/2/1997,Y,7/14/1997,39.118,76.783,467798,861604,2131105,Little Patuxent River,23.6,7.9,7.55,7.64,313.6,380,1109.3,3.9,0.45,20.35,none,13,10,11,17,5,11,7,41,99,72,6,10,8,8,21,FR,PV,117,0.6,8.78,56.25,0.075,4.41,7728.52,33.92,21.29,36.77,0.3,7.44,0.29,6.91,27,3.63,12.23,5.44,4.23,22.99,5.73,0.3,3.82,0.04,7.4,87.39,0,0,COASTAL,4.25,1.29,5
AA-N-152-318-97,DORSEY RUN,97,C,N,AA,PX,318,3,Y,4/2/1997,Y,7/14/1997,39.115,76.784,466872,861285,2131105,Little Patuxent River,22.6,6.8,7.68,7.5,312.8,382,1112.5,3.6,0.44,20.24,none,13,14,14,18,11,12,7,25,65,80,13,13,16,4,50,FR,FR,160,0.7,8.28,62.75,0.1,3.52,7814.24,33.84,21.23,36.9,0.29,7.42,0.32,6.89,26.96,3.6,12.22,5.42,4.19,22.89,5.69,0.29,4.12,0.1,7.32,96.05,0,0,COASTAL,3.75,1.57,5.46154
AA-N-160-215-97,MAGOTHY R,97,C,N,AA,WC,215,2,Y,3/25/1997,Y,7/10/1997,39.114,76.556,466540,925848,2131001,Magothy River,25.8,7.7,6.95,7.12,211.6,241,422.7,5.7,1.09,19.28,none,18,18,15,15,17,14,16,65,98,85,4,4,10,2,21,FR,PV,70,0.9,4.8,39.25,0.0875,2.67,3099.11,30.21,27.06,41.16,0.24,0.57,0.72,3.34,26.88,2.08,22.28,2.71,5.83,25.23,8.39,0.24,1.71,0,0.57,83.12,0,0,COASTAL,4,2.14,6.28421
AA-N-162-216-97,SCHULTZ RUN,97,C,N,AA,WC,216,2,Y,3/27/1997,Y,8/11/1997,39.108,76.703,464183,884309,2131002,Severn River,19,4.9,6.95,6.76,177,209,555.1,8.5,0.3,15.38,none,13,11,5,10,7,9,6,60,70,90,5,11,5,7,50,FR,FR,40,2.2,1.3,21.25,0.0125,0.06,695.59,9.2,17.66,34.04,0,39.08,0.05,2.35,6.85,0.2,16.87,0.59,6.9,13.21,7.63,0,6.31,0.78,38.3,37.77,0,0,COASTAL,3.25,2.71,6.72857
AA-N-172-209-95,SAWMILL CR,95,C,N,AA,PP,209,2,Y,3/23/1995,Y,7/5/1995,39.15855,76.649889,482810,899278,2130903,Baltimore Harbor,18.7,8.2,6.67,6.94,135,144,295.51,4,1.85,24.29,none,7,4,10,12,14,9,12,50,95,96,11,13,8,2,50,FR,FR,52,0.7,2.38,23,0.125,1.11,1715.88,9.91,27.8,38.45,0.4,23.1,0.1,1.21,8.71,2.22,23.54,2.04,11.4,16.04,7.93,0.4,3.07,0,23.1,49.09,0,0,COASTAL,3,3,3.05263
AA-N-180-130-95,STONY RUN,95,C,N,AA,PP,130,1,Y,3/23/1995,Y,7/5/1995,39.140781,76.708731,476280,882614,2130906,Patapsco River Lower North Branch,18.3,7.6,6.33,6.3,180,182,216.63,5,3.62,29.9,none,5,5,8,6,13,4,16,80,95,93,5,6,1,0,0,,CP,49,1,1.4,17,0.075,0.27,335.32,25.57,15.53,35.82,0,23.24,0.2,0.3,25.27,2.13,11.97,1.42,11.77,15.12,6.5,0,2.44,0,23.24,13.15,0,0,COASTAL,3.25,2.71,3.7459
AA-N-186-115-96,SAWMILL CR UT1,96,C,N,AA,PP,115,1,Y,3/6/1996,Y,6/5/1996,39.182,76.623,491313,906918,2130903,Baltimore Harbor,14.1,8.8,6.66,6.11,308.1,270,729,11.8,2.38,14.77,none,12,7,7,12,10,6,5,95,40,95,7,6,5,0,3,FR,HO,17,2.2,1.6,6.75,0.255,0.31,245,80.41,4.9,14.29,0,0,0,4.08,76.33,0.41,3.67,0.82,1.22,10.2,2.86,0,0,0,0,25.29,0,0,COASTAL,,3.29,5.63014
AA-N-190-101-97,PATUXENT R UT2,97,C,N,AA,PX,101,1,Y,3/6/1997,Y,6/2/1997,38.814997,76.698,357748,885908,2131102,Patuxent River (Middle),15.5,8.4,6.69,6.92,221.5,214,380.2,4.7,1.98,19.68,none,8,11,11,11,11,7,8,35,72,86,6,9,3,0,21,FR,DI,52,0.4,1.9,18.25,0.27,0.32,230.91,18.27,45.97,36.54,0,0,0,0.74,17.53,1.47,39.63,4.86,6.78,25.93,3.83,0,0,0,0,50.47,0,0,COASTAL,,1.29,6.19048
AA-N-201-203-97,JABEZ BR,97,C,N,AA,WC,203,2,Y,3/26/1997,Y,7/28/1997,39.079,76.633,453933,904070,2131002,Severn River,17.7,8.5,6.97,7.04,317,295,589.9,7.9,0.79,10.8,none,12,13,10,10,11,5,5,60,70,80,20,19,9,4,50,FR,FR,35,0.3,1.85,13.25,0.2975,1.21,3364.1,16.72,26.86,56.21,0.06,0,0.09,1.09,15.63,10.31,12.51,4.05,3.23,42.35,8.51,0.06,2.13,0,0,58.11,0,0,COASTAL,2,1.86,4.26316
AA-N-209-104-97,MAGOTHY R UT1,97,C,N,AA,WC,104,1,Y,3/25/1997,Y,7/10/1997,39.119,76.545,468632,929044,2131001,Magothy River,17.3,8.2,6.29,6.45,287.9,200,210.9,2.8,2.72,23.31,none,10,5,10,10,11,9,13,95,90,65,5,12,2,0,0,,CP,32,0.5,2.1,16.25,0.18,0.39,265.31,76.43,5.39,16.93,0.38,1.67,0,11.41,65.02,0,5.13,0.26,4.49,6.92,5.51,0.38,0,0,1.67,33.24,0,0,COASTAL,,1.29,7.58824
AA-N-211-101-97,MILL SWAMP BR,97,C,N,AA,WC,101,1,Y,4/2/1997,Y,7/21/1997,38.887,76.594,383907,915522,2131004,West River,16.4,3.6,6.97,5.67,177.4,170,764.3,4.8,1.94,20.9,none,2,1,2,2,1,1,6,100,20,50,4,12,1,0,0,,PA,16,0.3,0.05,2,0.0025,0.04,107.36,0,89.06,10.78,0,0,0,0,0,33.6,25.67,29.79,0,10.14,0.63,0,0,0,0,2.73,0,0,COASTAL,,1.86,6.39773
AA-N-230-302-97,SEVERN RUN,97,C,N,AA,WC,302,3,Y,3/27/1997,Y,8/7/1997,39.103,76.689997,462368,888073,2131002,Severn River,17.4,8.7,6.98,7.11,166.8,147,424.9,5.1,0.85,17.51,none,8,7,13,13,10,10,4,50,70,80,6,1,8,4,50,FR,PV,94,0.4,3.88,28.25,0.105,1.07,2754.8,26.53,19.49,41.23,0.09,12.57,0.17,4.52,22.01,2.2,15.69,1.61,10.13,19.03,7.78,0.09,4.29,0.2,12.38,57.84,0,0,COASTAL,3,1.86,5.51724
AA-N-230-307-97,SEVERN RUN,97,C,N,AA,WC,307,3,Y,3/27/1997,Y,8/7/1997,39.107,76.698,463827,885832,2131002,Severn River,17.8,8.7,6.78,6.74,152.3,141,369,4.1,0.93,17.19,none,10,10,14,13,10,16,6,50,90,85,6,6,8,2,50,FR,FR,81,0.6,4.35,40,0.06,1.61,2569.85,28.24,17.67,40.35,0.09,13.5,0.19,4.7,23.54,2.08,13.88,1.72,10.29,18.1,7.72,0.09,4.25,0.21,13.29,68.54,0,0,COASTAL,2.5,1.57,6.7619
AA-N-230-313-97,SEVERN RUN,97,C,N,AA,WC,313,3,Y,3/27/1997,Y,8/11/1997,39.108,76.7,464359,885015,2131002,Severn River,18.3,8.3,6.66,7.12,153.8,143,357.1,4.2,0.98,17.46,none,17,15,15,17,10,11,9,55,90,75,2,5,7,5,10,FR,HO,114,0.6,4.05,36.75,0.1775,0.83,2520.82,28.24,17.59,40.19,0.08,13.75,0.19,4.48,23.76,2.12,13.73,1.74,10.27,17.88,7.72,0.08,4.32,0.22,13.54,91.33,0,0,COASTAL,3.25,2.14,5.77778
AA-N-230-319-97,SEVERN RUN,97,C,N,AA,WC,319,3,Y,4/30/1997,Y,8/11/1997,39.108197,76.701978,464419,884569,2131002,Severn River,19,8.2,6.54,6.11,158.8,147,339.8,3.7,1.22,17.09,none,14,11,15,15,10,11,8,50,80,80,2,8,7,3,50,FR,HO,141,0.4,3.43,49,0.105,1.24,714.69,9.14,18.04,34.94,0,37.85,0.05,2.28,6.85,0.19,17.23,0.62,6.9,13.95,7.81,0,6.28,0.76,37.09,91.06,0,0,COASTAL,2.75,2.43,6.40909
AA-N-244-203-95,SAWMILL CR UT2,95,C,N,AA,PP,203,2,Y,3/23/1995,Y,7/3/1995,39.178839,76.626489,490225,905885,2130903,Baltimore Harbor,19.9,7.9,6.99,7.33,288,300,946.94,2,3.11,26.89,none,12,7,13,13,11,5,5,50,60,80,2,3,7,5,0,,HO,65,0.7,2.75,15.75,0.2075,0.97,577.93,75.65,10.6,13.54,0,0.06,0,6.83,68.82,1.53,7.24,1.83,0.41,11.54,1.59,0,0,0,0.06,63.36,0,0,COASTAL,2.5,2.43,6.31429
AA-N-250-217-97,NORTH R,97,C,N,AA,WC,217,2,Y,3/31/1997,N,7/31/1997,38.997,76.634,424055,903899,2131003,South River,,,5.14,,88.7,,0.6,2.1,0.31,17.49,AD,,,,,,,,,,,,,,,,,,,,,,,,2645.03,2.35,29.75,67.46,0.36,0,0.04,0.26,2.1,4.79,19.15,5.81,2.34,49.34,9.93,0.36,5.84,0,0,,,,COASTAL,,2.71,6.91304
AA-N-258-121-97,DEEP DITCH BR,97,C,N,AA,WC,121,1,Y,4/3/1997,Y,7/9/1997,39.030453,76.599486,436216,913777,2131002,Severn River,18.1,8.7,6.63,6.64,308,350,282.7,1.1,1.21,18.25,none,9,5,5,7,10,7,5,95,50,90,15,5,3,0,50,FR,FR,40,1.2,0.95,7,0.115,0.1,90.09,26.44,17.37,56.28,0,0,0,0.38,26.06,3.02,12.09,2.26,0,46.83,9.45,0,0,0,0,12.06,0,0,COASTAL,,2.71,4.91089
AA-N-262-101-96,MARLEY CR,96,C,N,AA,PP,101,1,Y,3/6/1996,Y,6/4/1996,39.148,76.612,478862,910075,2130903,Baltimore Harbor,15.8,8.6,6.99,6.78,676.1,363,897.9,14.6,1.89,22.61,none,0,0,6,1,2,2,16,100,20,20,0,1,0,0,0,,HO,12,1.5,0.55,5.25,0.32,0.13,832,89.9,2.64,7.57,0,0,0,15.38,74.52,0.36,2.16,0.12,2.16,4.09,1.32,0,0,0,0,1.61,0,0,COASTAL,1,1,6
AA-N-278-109-97,BACON RIDGE BR,97,C,N,AA,WC,109,1,Y,3/26/1997,N,7/9/1997,39.042,76.644,440358,901209,2131003,South River,,,7.05,,190.8,,531.2,7,1.31,23.87,none,,,,,,,,,,,,,,,,,,,,,,,,507.59,17.43,48.26,32.18,0.07,0,1.68,0.2,17.23,28.62,9.38,10.26,1,23.73,7.44,0.07,0,0,0,,,,COASTAL,,1.29,7.90164
AA-N-281-310-97,SEVERN RUN,97,C,N,AA,WC,310,3,Y,3/25/1997,Y,7/22/1997,39.104997,76.641,463463,901959,2131002,Severn River,21.8,8.2,7.18,7.26,169.3,170,398.2,3.4,1.34,16.08,none,18,18,17,17,17,10,13,95,90,60,16,16,11,6,50,FR,FR,83,0.9,4.3,39.25,0.1875,6.77,9800.11,28.35,19.17,43.31,0.3,8.73,0.14,4.56,23.79,2.98,15.4,0.79,12.36,17.87,9.22,0.3,3.86,0.08,8.65,92.48,0,0,COASTAL,2.75,4.43,4.3
AA-N-281-311-97,SEVERN RUN,97,C,N,AA,WC,311,3,Y,3/25/1997,Y,7/22/1997,39.101,76.64,461851,902260,2131002,Severn River,20.7,7.7,7.07,7.2,169.5,172,389.6,3.4,1.32,16.07,none,17,17,16,17,18,11,11,100,90,70,16,19,17,9,50,FR,FR,122,0.9,4.25,54.25,0.15,4.34,9914.58,28.03,19.11,43.79,0.3,8.63,0.14,4.51,23.52,2.95,15.38,0.78,12.55,18.04,9.25,0.3,3.94,0.08,8.55,94.42,0,0,COASTAL,3,2.71,5.76923
AA-N-307-218-97,LITTLE PATUXENT R UT2,97,C,N,AA,PX,218,2,Y,3/3/1997,Y,7/31/1997,39.039997,76.715,439703,881028,2131105,Little Patuxent River,21.2,4.3,6.27,6.89,63.2,476,206,10.1,0.3,8.41,none,6,11,5,5,5,4,14,45,20,82,6,1,1,0,3,FR,OF,29,0.1,0.95,8.25,0,0.02,377.47,0.36,22.35,73.01,0.54,2.88,1.17,0.36,0,0.36,15.68,6.31,4.78,41.37,10.91,0.54,15.95,0.72,2.16,8.88,0,0,COASTAL,2,1.57,8.5
AA-N-321-117-97,LITTLE PATUXENT R UT1,97,C,N,AA,PX,117,1,Y,3/2/1997,Y,6/18/1997,39.005,76.689,426665,888346,2131105,Little Patuxent River,21.9,8.1,6.69,7.05,216.7,180,485.9,4.7,0.6,21.2,none,12,12,15,16,14,7,6,40,90,70,6,6,4,7,0,,LN,108,0.02,3.75,21.25,0.165,1.42,1132.62,37.82,27.76,32.02,0.27,1.41,0.81,3.6,34.22,5.56,18.59,3.6,1.08,20.46,7.48,0.27,3,0,1.41,86.39,0,0,COASTAL,2,1.86,6.67164
AA-N-323-225-96,SAWMILL CR,96,C,N,AA,PP,225,2,Y,3/6/1996,Y,6/4/1996,39.158,76.652,482649,898646,2130903,Baltimore Harbor,15.4,8.6,6.56,6.47,190.2,177,321.6,4.9,1.55,25.47,none,16,15,13,13,12,14,16,85,90,90,10,16,13,2,24,FR,FR,60,1,2.48,32,0.1725,1.86,1546,11.71,25.36,36.55,0.32,25.94,0.13,2.07,9.64,2.26,21.09,2.01,10.35,15.78,7.5,0.32,2.91,0,25.94,77.97,0,0,COASTAL,3.25,2.71,6.74757
AA-N-337-102-97,FRANKLIN BR,97,C,N,AA,PX,102,1,Y,3/31/1997,Y,6/18/1997,39.098,76.732,460824,876098,2131105,Little Patuxent River,17.3,9.9,7.11,6.74,249,288,706.7,5.2,1.09,18.28,none,3,3,3,10,4,4,10,100,97,13,2,6,0,0,0,,PK,45,0.3,2.65,22.5,0.0325,0.24,776.5,69.19,18.8,11.92,0,0,0,10.43,58.76,3.68,5.96,9.16,4.34,6.05,1.53,0,0,0,0,7.71,0,0,COASTAL,2.5,1.29,8.34091
AA-S-001-226-97,LYONS CR,97,C,S,CA,PX,226,2,Y,3/6/1997,Y,7/28/1997,38.767,76.628,340264,906061,2131102,Patuxent River (Middle),23.1,6.8,6.83,7,179.7,300,246.7,4.3,1.12,26.69,none,11,5,9,13,0,16,6,100,80,95,8,13,6,2,50,FR,FR,77,0.06,2.73,48.25,0.0125,0.32,5024.7,7.23,59.68,32.46,0.61,0,0.12,0.71,6.52,15.53,30.62,13.53,0.74,23.7,2.93,0.61,5.1,0,0,53.22,0,0,COASTAL,4.75,4.14,5.84146
AA-S-008-132-97,HALL CR,97,C,S,AA,PX,132,1,Y,3/6/1997,Y,6/30/1997,38.744997,76.611,332385,910875,2131101,Patuxent River (Lower),18.3,8.5,6.88,7.26,145.8,150,430.3,2.9,0.61,24.35,none,4,4,7,8,9,5,6,100,65,80,14,16,3,1,50,FR,FR,38,0.55,1.08,14.5,0.095,0.18,442.62,5,36.51,58.5,0,0,0,0.61,4.38,5.23,25.29,6,1.69,48.89,7.92,0,0,0,0,15.73,0,0,COASTAL,2.5,2.71,5.77358
AA-S-024-138-97,DEEP CR,97,C,S,AA,PX,138,1,Y,3/6/1997,Y,6/2/1997,38.773,76.679,342374,891495,2131102,Patuxent River (Middle),15.4,9.3,6.58,7.25,216.2,198,195.8,2.8,0.93,26.86,AD,9,12,9,11,12,15,7,30,85,85,12,18,8,0,50,FR,CP,42,1.12,2.65,13.25,0.2375,1.33,650.53,2.56,52.2,45.08,0.05,0,0.21,0.26,2.3,13.13,23.01,16.06,0.21,37.66,2.93,0.05,4.29,0,0,58.64,0,0,COASTAL,2.75,3,5.37705
AA-S-037-214-97,LERCH CR,97,C,S,AA,WC,214,2,Y,4/2/1997,N,7/21/1997,38.85,76.564,370467,924148,2131004,West River,,,6.44,,144.4,,127.7,2.3,0.65,27.12,AD,,,,,,,,,,,,,,,,,,,,,,,,1372.5,0.27,44.52,54.88,0,0,0.22,0,0.27,15.17,10.73,18.62,0.4,45.41,4.09,0,4.98,0,0,,,,COASTAL,,1,5.58333
AL-A-007-304-96,NORTH BR OF JENNINGS RUN,96,W,A,AL,NO,304,3,Y,4/1/1996,Y,7/10/1996,39.701981,78.84485,685805,280895,2141003,Wills Creek,18.6,7.7,7.46,7.44,246.3,394,515.9,1.2,1.18,73.51,none,11,7,9,9,5,15,12,0,75,80,2,14,0,0,50,LN,HO,36,1.5,5.85,25,0.0925,2.28,8009,0.45,17.72,80.36,0,1.46,0,0.14,0.31,6.52,7.02,4.18,0.24,76.94,3.17,0,0.01,1.39,0.07,6.87,0,0,HIGHLAND,1.86,3.22,2.66667
AL-A-020-228-95,MAPLE RUN,95,W,A,AL,UP,228,2,Y,3/28/1995,Y,6/21/1995,39.619161,78.528739,653999,369328,2140512,Town Creek,24.8,1.7,6.33,5.9,42.7,50,93.73,2,0.14,10.6,AD,1,1,2,1,0,11,5,90,2,90,17,20,1,0,50,FR,FR,20,2,0,0,0,0,1335.26,0,1.71,98.03,0,0.36,0.03,0,0,0,1.68,0.03,0.51,89.52,8,0,0,0,0.36,0.71,0,0,HIGHLAND,3.57,2.56,6.25301
AL-A-027-205-95,TERRAPIN RUN,95,W,A,AL,UP,205,2,Y,3/23/1995,Y,6/20/1995,39.67525,78.433111,673989,396585,2140511,Fifteen Mile Creek,16,8.2,6.94,6.84,114.8,122,183.6,2,0.17,14.62,AD,6,11,8,8,7,16,16,40,40,93,20,19,0,0,50,FR,FR,38,3,1.83,8.75,0.0325,0.03,2185.65,0,2.83,93.42,0,3.72,0.02,0,0,1.42,1.23,0.19,3.78,81.96,7.67,0,0,0,3.72,10.37,0,0,HIGHLAND,1,3.22,3.83784
AL-A-027-209-95,TERRAPIN RUN,95,W,A,AL,UP,209,2,Y,3/23/1995,Y,6/20/1995,39.673269,78.433419,673272,396488,2140511,Fifteen Mile Creek,17,7.6,6.98,6.7,112.5,117,175.46,3,0.19,14.88,AD,8,11,7,14,7,16,15,0,45,97,19,19,2,0,50,FR,FR,36,3.5,2.18,8.75,0.08,0.2,2428.11,0,2.55,94.12,0,3.35,0.01,0,0,1.28,1.11,0.17,3.52,83.45,7.16,0,0,0,3.35,5.89,0,0,HIGHLAND,1.29,3.44,3.90526
AL-A-033-314-95,FIFTEENMILE CR,95,W,A,AL,UP,314,3,Y,3/21/1995,Y,7/20/1995,39.710689,78.450561,686977,391881,2140511,Fifteen Mile Creek,19,8.2,7.07,6.24,46.9,50,182.15,2,0.32,10.03,AD,15,17,17,13,19,16,6,10,100,60,6,11,1,1,50,FR,FR,76,1.5,6.18,37.25,0.4625,8.23,9142.73,0,5.7,86.5,0.03,7.73,0.04,0,0,0.89,2.3,2.51,7.48,70.88,8.15,0.03,0,0,7.73,87.42,0,0,HIGHLAND,4.14,3.89,3.82456
AL-A-054-320-96,GEORGES CR,96,W,A,AL,NO,320,3,Y,3/29/1996,Y,7/11/1996,39.516439,79.021339,619287,229747,2141004,Georges Creek,20.2,8.1,7.21,6.97,632.2,1050,654.8,1.1,0.86,235.87,none,16,5,16,16,5,4,16,70,75,60,1,2,0,0,0,,RR,64,1.5,8.85,48.25,0.3275,12.84,38907,3.34,5.39,82.26,0,8.91,0.09,0.33,3.01,1.52,2.02,1.85,1.33,76.53,4.35,0,0.05,8.6,0.31,22.18,0,0,HIGHLAND,2.14,1.67,4.45455
AL-A-061-125-95,DEEP RUN UT1,95,W,A,AL,UP,125,1,Y,3/23/1995,N,,39.640031,78.464561,661302,387529,2140511,Fifteen Mile Creek,,,6.12,,47.9,,33.65,2,0.2,17.2,AD,,,,,,,,,,,,,,,,,,,,,,,,112.61,0,0,99.71,0,0,0,0,0,0,0,0,1.51,96.08,2.11,0,0,0,0,,,,HIGHLAND,,2.33,5.08108
AL-A-069-102-95,WHITE SULPHUR RUN,95,W,A,AL,UP,102,1,Y,3/27/1995,N,,39.639161,78.502531,661160,376831,2140511,Fifteen Mile Creek,,,5.94,,32.4,,73.24,1,0,8.78,AD,,,,,,,,,,,,,,,,,,,,,,,,61.98,0,0,98.26,0,0,0,0,0,0,0,0,0,94.42,3.84,0,0,0,0,,,,HIGHLAND,,2.33,6.92308
AL-A-143-226-95,SPRING LICK HOLLOW,95,W,A,AL,UP,226,2,Y,3/22/1995,Y,7/5/1995,39.65835,78.397411,667678,406543,2140511,Fifteen Mile Creek,18,9.2,6.84,7.07,65.8,71,138.19,2,0.58,15.44,AD,16,15,11,11,13,19,19,0,90,95,10,18,3,0,0,,SL,58,8.25,3.03,15.25,0.44,1.39,1386.92,0,21.22,78.72,0,0,0.02,0,0,10.89,5.59,4.73,6.38,68.59,3.75,0,0,0,0,35.43,0,0,HIGHLAND,1.57,4.33,4.13095
AL-A-146-301-95,FIFTEENMILE CR,95,W,A,AL,UP,301,3,Y,3/21/1995,Y,7/26/1995,39.691689,78.4523,680065,391281,2140511,Fifteen Mile Creek,22,9.3,6.89,,47.7,62,177.81,2,0.29,10.27,AD,13,11,11,16,16,14,15,40,75,30,10,17,0,1,50,FR,FR,65,1,7.53,27.5,0.1775,1.53,12932.74,0,4.35,89.55,0.02,6.04,0.05,0,0,0.72,1.74,1.89,7.28,74.4,7.87,0.02,0,0,6.04,61.41,0,0,HIGHLAND,3.86,3.89,3.31325
AL-A-148-201-96,SEVEN SPRINGS RUN,96,W,A,AL,NO,201,2,Y,4/4/1996,N,6/19/1996,39.560469,78.624231,633089,342050,2141001,Potomac River (Lower North Branch),,,7.85,,202.1,,1163,2.7,0.18,36,none,,,,,,,,,,,,,,,,,,,,,,,,1016,0,15.06,84.55,0,0.3,0,0,0,2.07,12.6,0.39,1.08,74.51,8.96,0,0,0,0.3,,,,HIGHLAND,,3.22,6.18421
AL-A-167-230-95,PINE LICK HOLLOW,95,W,A,AL,UP,230,2,Y,3/21/1995,Y,6/22/1995,39.695719,78.455989,681549,390265,2140511,Fifteen Mile Creek,17.1,5.7,6.91,6.44,47,55,131.04,1,0.16,11.1,AD,6,11,7,3,7,17,12,25,30,90,10,20,0,0,50,FR,FR,19,2.5,2.83,5,0.09,0.16,2043.51,0,1.08,96.9,0,2.01,0.08,0,0,0.55,0.52,0.02,7.26,80.7,8.94,0,0,0,2.01,11.36,0,0,HIGHLAND,2.14,4.33,2.625
AL-A-171-206-95,PINE LICK HOLLOW,95,W,A,AL,UP,206,2,Y,3/28/1995,Y,6/22/1995,39.713881,78.478619,688266,384006,2140511,Fifteen Mile Creek,20,6.4,6.49,6.74,42.3,70,92.9,2,0.12,11.02,AD,6,12,4,2,3,18,15,0,15,50,6,20,0,0,0,,PA,8,2,1.1,5,0.0675,0.03,373.49,0,1.09,96.2,0,2.37,0.18,0,0,0.55,0.55,0,5.1,84.17,6.92,0,0,0,2.37,2.11,0,0,HIGHLAND,1,3.44,3.01575
AL-A-177-232-95,DEEP RUN,95,W,A,AL,UP,232,2,Y,3/23/1995,Y,6/20/1995,39.647761,78.462589,664110,388131,2140511,Fifteen Mile Creek,17,3.4,6.7,6.41,50.6,48,94.23,2,0.16,14.91,AD,8,13,11,13,6,12,17,30,45,90,17,15,4,2,50,FR,FR,56,2,2.55,8.5,0.13,0.16,3482.39,0,1.06,99.01,0,0.01,0,0,0,0.27,0.77,0.01,0.59,93.42,5,0,0,0,0.01,27.51,0,0,HIGHLAND,3,3.44,3.63866
AL-A-187-218-96,DEEP HOLLOW,96,W,A,AL,NO,218,2,Y,4/24/1996,Y,7/10/1996,39.4831,78.961719,606781,246302,2141001,Potomac River (Lower North Branch),17,7.5,7.33,6.43,102.2,103,391.6,2,0.79,22,none,9,5,11,16,7,10,17,25,40,93,16,20,0,0,50,FR,FR,50,5,1.5,18.5,0.035,0.03,917,0,0.44,99.13,0,0,0,0,0,0,0.44,0,1.42,78.52,19.19,0,0,0,0,23.25,0,0,HIGHLAND,1,3.89,4.30841
AL-A-199-122-95,TERRAPIN RUN UT1,95,W,A,AL,UP,122,1,Y,3/22/1995,Y,7/21/1995,39.703889,78.412669,684333,402503,2140511,Fifteen Mile Creek,16,8.4,6.6,6.08,106.3,82,74.56,2,0.35,11.41,AD,11,5,6,6,8,18,16,70,90,75,20,19,3,0,50,FR,FR,12,4.5,2.43,5,0.0875,0.14,206.85,0,0.66,99.51,0,0,0,0,0,0,0.66,0,0.99,88.82,9.7,0,0,0,0,11.57,0,0,HIGHLAND,,4.11,2.75591
AL-A-202-121-96,WARRIOR RUN,96,W,A,AL,NO,121,1,Y,4/10/1996,Y,6/24/1996,39.59885,78.856331,648313,276900,2141001,Potomac River (Lower North Branch),15,8.2,7.28,7.39,160.4,162,343.1,1.1,1.11,44.96,none,13,17,10,11,16,16,17,40,80,90,12,16,1,1,0,,PA,40,5,3.28,23.5,0.2025,1.16,1255,0,1.67,91.95,0,6.61,0.08,0,0,0,0.16,1.51,0.56,89.08,2.31,0,0,6.61,0,57.46,0,0,HIGHLAND,2.43,3.89,2.025
AL-A-207-307-95,FIFTEENMILE CR,95,W,A,AL,UP,307,3,Y,3/21/1995,Y,7/26/1995,39.686711,78.455711,678267,390292,2140511,Fifteen Mile Creek,22.5,7.4,6.91,7.32,54.9,62,172.95,2,0.26,10.34,AD,13,8,8,18,0,10,15,0,90,30,5,15,2,0,0,,GR,83,1,12.13,53.25,0.0175,2.23,13170.94,0,4.27,89.73,0.02,5.93,0.05,0,0,0.71,1.71,1.85,7.3,74.55,7.88,0.02,0,0,5.93,4.49,0,0,HIGHLAND,2.71,4.11,4.87342
AL-A-215-112-95,RAILROAD HOLLOW UT1 TO UT1,95,W,A,AL,UP,112,1,Y,3/28/1995,Y,7/21/1995,39.61575,78.51205,652679,374010,2140512,Town Creek,19.5,6.8,6.99,6.55,53.4,50,231.11,2,0.14,11.99,none,15,15,8,10,11,16,13,0,80,90,19,19,3,0,50,FR,FR,29,5,2.35,11,0.0525,0.09,215.67,0,0,100.33,0,0,0,0,0,0,0,0,0.95,94.18,5.21,0,0,0,0,21.48,0,0,HIGHLAND,,3.44,3.72727
AL-A-221-107-96,GEORGES CR UT1,96,W,A,AL,NO,107,1,Y,3/29/1996,Y,7/11/1996,39.5229,79.013581,621592,231986,2141004,Georges Creek,17.9,9.3,4.98,3.95,980.8,1750,-3.4,1,1.21,520.27,AMD,12,2,10,11,13,9,9,60,70,90,6,3,0,0,38,FR,LN,48,9.5,2.55,12.25,0.185,0.23,1216,0.08,6.17,81,0,12.91,0,0,0.08,0.9,3.62,1.64,1.48,73.77,5.76,0,0,12.91,0,20.79,0,0,HIGHLAND,1,2.33,0.57142
AL-A-229-109-96,STAUB RUN,96,W,A,GA,NO,109,1,Y,4/16/1996,Y,6/28/1996,39.632911,78.977019,661431,243166,2141004,Georges Creek,14,8.1,5.21,4.72,28.3,24,-10.5,1.1,0.31,7.75,AD,11,8,8,9,9,18,19,60,70,96,20,20,4,0,50,FR,FR,26,7.5,3.38,11.25,0.22,0.18,578,0,1.21,98.44,0,0,0,0,0,0,0.87,0.35,0,94.81,3.63,0,0,0,0,18.23,0,0,HIGHLAND,1,1.89,3.91026
AL-A-232-313-96,SAND SPRING RUN,96,W,A,AL,NO,313,3,Y,4/8/1996,Y,6/25/1996,39.654631,78.940261,669117,253685,2141004,Georges Creek,19,7.4,7.01,7.21,345.3,275,175.7,2.4,0.8,22.08,AMD & AD,18,10,13,16,14,13,18,60,100,85,1,5,0,0,0,,LN,59,3,4.35,36.75,0.245,6.27,1903,5.41,12.19,81.5,0,0.89,0,0.47,4.94,1.52,6.62,4.05,0.53,76.93,4.05,0,0,0.89,0,49.33,0,0,HIGHLAND,1.86,1.89,3.27273
AL-A-244-227-95,FLAT RUN,95,W,A,AL,UP,227,2,Y,3/28/1995,Y,6/15/1995,39.638411,78.411611,660477,402430,2140511,Fifteen Mile Creek,15.5,3.8,6.77,6.61,53.8,47,144.01,2,0.12,14.36,AD,7,5,3,7,6,19,17,0,40,95,16,19,1,0,50,FR,FR,32,2.3,1.35,6.25,0.1075,0.03,802.86,0,4.07,95.61,0,0.3,0,0,0,0,3.9,0.17,2.67,84.76,8.18,0,0,0,0.3,9.29,0,0,HIGHLAND,1,3.67,3.16092
AL-A-248-213-95,SAWPIT RUN,95,W,A,AL,UP,213,2,Y,3/28/1995,Y,7/3/1995,39.551331,78.575331,629518,355779,2140512,Town Creek,18.5,7.9,6.69,7.33,83.6,75,291.05,2,0.14,21.55,none,5,2,6,10,11,20,19,100,100,55,11,15,0,0,50,FR,FR,40,0.5,2.18,23.25,0.4825,5.43,2496.67,0.01,9.7,90.26,0,0,0.15,0,0.01,1.38,8,0.33,3.97,71.6,14.69,0,0,0,0,5.05,0,0,HIGHLAND,1.57,3.67,5.26923
AL-A-248-234-95,SAWPIT RUN,95,W,A,AL,UP,234,2,Y,3/27/1995,Y,7/3/1995,39.548289,78.563769,628353,359019,2140512,Town Creek,16,8.4,7.3,6.82,113.5,78,400.21,5,0,35.38,none,16,5,16,16,15,18,16,0,100,25,4,19,0,0,28,FR,PV,70,1,5.28,35,0.35,10.4,3134.26,0.01,8.51,91.45,0,0,0.12,0,0.01,1.18,7.01,0.31,3.21,74.55,13.66,0,0.03,0,0,57.46,0,0,HIGHLAND,2.14,1.44,6.6135
AL-A-254-326-96,BRADDOCK RUN,96,W,A,AL,NO,326,3,Y,4/8/1996,Y,7/16/1996,39.637919,78.848669,662496,279347,2141003,Wills Creek,13,10.1,7.97,7.73,860.6,800,308.7,0.8,0.59,346.43,none,18,3,18,20,20,5,17,60,98,60,1,1,0,0,0,,PK,164,2.5,7.9,59.25,0.4925,25.03,6460,4.04,8.44,83.75,0,3.79,0.02,0.42,3.62,1.5,5.12,1.81,1.64,77.62,4.49,0,0,3.53,0.26,76.15,1,0,HIGHLAND,2.14,1.44,8.78571
AL-A-255-108-95,GROSS HOLLOW UT1,95,W,A,AL,UP,108,1,Y,3/24/1995,Y,6/21/1995,39.581539,78.467119,640010,386464,2140508,Potomac River (Allegany County),15.8,6.5,7.14,6.54,72.5,89,255.68,2,0.51,17.05,none,10,5,6,4,6,18,18,0,45,95,20,20,0,0,50,FR,FR,19,14,0.2,2.25,0.05,0.03,203.16,0,0.17,99.98,0,0,0,0,0,0,0.17,0,0.5,85.75,13.73,0,0,0,0,6.12,0,0,HIGHLAND,,3.67,2.99074
AL-A-268-221-96,SEVEN SPRINGS RUN,96,W,A,AL,NO,221,2,Y,4/4/1996,Y,6/19/1996,39.562669,78.631811,633926,339927,2141001,Potomac River (Lower North Branch),18,6,7.24,6.9,130,150,475.2,3.3,0.3,28.98,none,9,15,8,8,7,13,16,0,60,95,16,15,0,0,2,FR,OF,36,2,1.25,9.75,0.145,0.2,309,0,6.8,92.56,0,0,0,0,0,0.97,5.83,0,0,86.08,6.47,0,0,0,0,6.36,0,0,HIGHLAND,1,2.56,2
AL-A-276-323-96,EVITTS CR,96,W,A,AL,NO,323,3,Y,4/8/1996,Y,8/8/1996,39.700789,78.697969,684573,322211,2141002,Evitts Creek,22.5,8.7,8.04,7.64,145.1,162,922.3,2.7,0.69,14.35,none,16,18,7,12,15,19,19,25,100,35,11,11,0,0,0,,PA,46,1.5,15.65,30,0.375,17.34,44108,0.17,16.91,79.58,0.08,1.21,1.48,0.07,0.1,3.18,6.78,6.94,1.16,74.17,4.17,0.08,0.08,0,1.21,44.74,0,0,HIGHLAND,4.14,3.44,4.27586
AL-A-281-104-96,DRY RUN,96,W,A,AL,NO,104,1,Y,4/11/1996,N,7/10/1996,39.459331,78.987661,598282,238792,2141001,Potomac River (Lower North Branch),,,6.88,,112,,119.8,2.2,0.91,31.19,AMD,,,,,,,,,,,,,,,,,,,,,,,,336,0,0.6,99.11,0,0,0,0,0,0,0.6,0,0.3,87.2,11.61,0,0,0,0,,,,HIGHLAND,,2.78,2.59155
AL-A-294-325-96,TRADING RUN,96,W,A,AL,NO,325,3,Y,4/4/1996,Y,8/7/1996,39.558539,78.61855,632358,343639,2141001,Potomac River (Lower North Branch),24.2,8.1,7.17,6.8,107.3,132,327.8,2.9,0.33,24.63,none,12,5,14,16,8,12,9,45,97,40,6,7,1,0,0,,PA,54,1.5,3.45,30,0.1075,0.89,5322,0.02,9.02,89.67,0,1.22,0.04,0,0.02,0.96,7.65,0.41,0.96,81.08,7.35,0,0.28,0,1.22,24.75,0,0,HIGHLAND,3.86,2.56,5.17333
AL-A-296-226-96,JENNINGS RUN UT1,96,W,A,AL,NO,226,2,Y,4/1/1996,Y,7/10/1996,39.705569,78.896769,687411,266315,2141003,Wills Creek,16.6,9,4.14,4.76,297.4,411,-92.2,1.4,0.62,128.98,AMD,16,1,13,16,5,13,12,75,75,90,6,5,0,0,50,FR,LN,52,3,3.38,12,0.3225,0.43,1337,0,7.26,92.67,0,0.15,0,0,0,1.87,3.22,2.17,0.37,91.17,1.12,0,0,0,0.15,17.33,0,0,HIGHLAND,1,1.67,2.33333
AL-A-318-126-95,SIDELING HILL CR UT1 TO UT1,95,W,A,AL,UP,126,1,Y,3/20/1995,Y,7/19/1995,39.6925,78.360719,679961,417058,2140510,Sideling Hill Creek,17,8.1,6.53,6.19,71.1,59,59.65,2,0.21,12.61,AD,13,16,9,10,14,15,15,15,70,95,19,19,3,1,50,FR,FR,30,3.9,2.08,14,0.1875,0.4,398.68,0,7.25,92.43,0,0,0,0,0,2.13,4.35,0.77,10.41,74.25,7.77,0,0,0,0,58.96,0,0,HIGHLAND,1,3.44,3.17391
AL-A-319-219-96,PEA VINE RUN,96,W,A,AL,NO,219,2,Y,4/8/1996,N,7/16/1996,39.71135,78.719089,688529,316340,2141002,Evitts Creek,,,8.03,,191.3,,1334.1,1.9,0.53,19.5,none,,,,,,,,,,,,,,,,,,,,,,,,2223,0.13,11.88,80.48,0,7.2,0.13,0,0.13,3.87,4.32,3.69,0.81,73.41,6.25,0,0,0,7.2,,,,HIGHLAND,,3.22,4.82353
AL-A-343-307-96,GEORGES CR,96,W,A,AL,NO,307,3,Y,3/29/1996,Y,7/11/1996,39.509969,79.0423,617063,223780,2141004,Georges Creek,15,8.7,6.98,6.71,663.9,980,518,1,0.86,263.14,none,16,11,11,17,15,11,17,80,95,25,6,1,1,0,11,FR,RR,165,0.5,18.28,38.75,0.1825,14.55,43960,2.97,5.72,82.38,0.03,8.83,0.08,0.3,2.68,1.46,2.36,1.9,1.3,76.62,4.41,0.03,0.05,8.56,0.27,30.9,0,0,HIGHLAND,1.29,1.67,6.66667
AL-A-343-330-96,GEORGES CR,96,W,A,AL,NO,330,3,Y,4/18/1996,Y,7/11/1996,39.506981,79.044289,615988,223196,2141004,Georges Creek,15,8.7,7.41,6.71,744.7,980,678.3,1.9,0.67,349.54,none,19,10,16,18,19,1,17,55,90,15,0,2,0,0,0,,PV,106,2.5,9.2,56.75,0.3825,18.76,44197,2.96,5.74,82.4,0.02,8.81,0.08,0.3,2.66,1.45,2.39,1.9,1.3,76.64,4.41,0.02,0.05,8.54,0.27,73.45,0,0,HIGHLAND,2.14,2.56,4.28571
AL-A-373-113-96,SEVEN SPRINGS RUN UT1,96,W,A,AL,NO,113,1,Y,4/4/1996,N,6/19/1996,39.5633,78.63065,634150,340259,2141001,Potomac River (Lower North Branch),,,7.96,,228.3,,1651.3,2.1,0.17,27.12,none,,,,,,,,,,,,,,,,,,,,,,,,187,0,30.48,69.52,0,0,0,0,0,5.88,22.99,1.6,1.07,58.29,10.16,0,0,0,0,,,,HIGHLAND,,3.44,4.48649
AL-A-380-303-96,MILL RUN,96,W,A,AL,NO,303,3,Y,4/15/1996,Y,6/19/1996,39.5992,78.654789,647347,333690,2141001,Potomac River (Lower North Branch),18,8.7,7.39,7.13,111.4,95,395.8,2.2,0.26,26.48,none,12,12,10,14,13,10,11,65,96,95,5,15,0,2,7,FR,PA,46,1,4.18,18.5,0.1725,2.86,3590,0,8.11,91.56,0,0.19,0.06,0,0,2.42,4.9,0.78,0.45,84.23,6.88,0,0,0,0.19,45.76,0,0,HIGHLAND,2.14,4.33,3.68919
AL-A-392-316-95,SIDELING HILL CR UT1 ,95,W,A,AL,UP,316,3,Y,3/15/1995,Y,6/8/1995,39.7072,78.338361,685221,423426,2140510,Sideling Hill Creek,20,8.3,7.36,7.12,184.7,300,423.47,2,0.75,17.12,none,10,5,6,8,16,5,17,25,85,20,3,8,0,0,0,,PV,24,1.5,2.95,13.25,0.2375,1.22,3392.86,3.43,28.96,67.59,0,0.02,0.02,0.07,3.36,7.7,15.31,5.95,5.92,55.64,6.04,0,0,0,0.02,25.52,0,0,HIGHLAND,2.71,2.33,5.27885
AL-A-392-318-95,SIDELING HILL CR UT1,95,W,A,AL,UP,318,3,Y,3/15/1995,Y,6/8/1995,39.70705,78.33665,685160,423908,2140510,Sideling Hill Creek,19,5.6,7.28,6.76,184.3,365,430.9,2,0.64,15.39,none,12,10,12,9,10,12,17,15,75,65,3,9,0,0,0,,PV,60,2,3.25,20.25,0.2975,2.04,3419.3,3.62,28.74,67.64,0,0.02,0.02,0.07,3.55,7.64,15.19,5.9,5.99,55.64,6.01,0,0,0,0.02,34.04,0,0,HIGHLAND,3.57,1.22,5.4382
AL-A-413-308-96,BRADDOCK RUN,96,W,A,AL,NO,308,3,Y,3/29/1996,Y,7/16/1996,39.641511,78.8598,663869,276239,2141003,Wills Creek,15,9.4,7.78,7.69,840.2,900,1483.7,1.3,0.71,296.74,none,18,3,19,17,2,15,14,65,98,90,7,5,2,2,15,FR,TG,94,2.5,6.45,47,0.5075,25.03,6081,3.93,8.83,83.39,0,3.86,0.02,0.38,3.55,1.58,5.38,1.87,1.66,77.54,4.19,0,0,3.75,0.12,47.8,1,0,HIGHLAND,2.14,1.44,4
AL-A-419-106-95,MUDLICK HOLLOW,95,W,A,AL,UP,106,1,Y,3/20/1995,Y,6/16/1995,39.690539,78.390381,679372,408698,2140511,Fifteen Mile Creek,15.1,6.8,7.01,6.55,497,560,227.61,3,0.33,17.72,none,5,5,6,3,6,17,13,40,40,96,16,19,2,0,50,FR,FR,14,4.2,0.55,5,0.03,0.01,145.23,7.5,11.48,80.59,0,0,0.23,0.23,7.26,2.81,5.39,3.28,0.23,79.65,0.7,0,0,0,0,6.61,0,0,HIGHLAND,,2.33,4.6036
AL-A-425-314-96,ELK LICK RUN,96,W,A,AL,NO,314,3,Y,4/8/1996,Y,7/16/1996,39.677461,78.707511,676125,319368,2141002,Evitts Creek,21,8.1,8.19,7.46,582.5,550,3922.1,1.4,1.04,49.25,none,16,4,14,15,7,18,16,55,65,80,2,9,1,2,13,FR,PV,84,1,2.7,31,0.145,0.87,3445,2.76,12.28,84.62,0,0.29,0,0.44,2.32,3.51,7.75,1.02,1.34,72.77,10.51,0,0,0,0.29,48.82,0,0,HIGHLAND,4.14,,5.33333
AL-A-441-309-95,WHITE SULPHUR RUN,95,W,A,AL,UP,309,3,Y,3/21/1995,Y,6/22/1995,39.660581,78.462481,668779,388236,2140511,Fifteen Mile Creek,21,11.2,6.92,6.54,45.1,57,118.03,2,0.16,11.59,AD,16,5,12,16,6,16,13,20,50,70,4,19,3,0,0,,GR,46,1,2.25,13.25,0.0275,0.32,4346.7,0,0.88,99,0,0.08,0.03,0,0,0.16,0.7,0.02,3.8,85.03,10.18,0,0,0,0.08,42.23,0,0,HIGHLAND,3.86,3.89,3.69444
AL-A-465-311-96,COLLIER RUN,96,W,A,AL,NO,311,3,Y,4/24/1996,Y,6/20/1996,39.587169,78.717611,643292,315907,2141001,Potomac River (Lower North Branch),18.2,8.6,7.43,7.21,111.6,95,560.9,1.5,0.26,17.63,none,14,11,10,12,16,15,17,0,96,50,5,10,0,0,0,,PA,42,1,4.48,20.5,0.26,3.61,6298,0.03,10.78,89.03,0,0.1,0.06,0,0.03,1.44,7.88,1.46,0.43,81.26,7.32,0,0.02,0,0.1,28.34,0,0,HIGHLAND,2.71,4.56,3.69737
AL-A-465-324-96,COLLIER RUN,96,W,A,AL,NO,324,3,Y,4/15/1996,Y,6/20/1996,39.60515,78.704289,649770,319782,2141001,Potomac River (Lower North Branch),16,7.8,7.24,6.96,86.4,100,282.7,2.1,0.3,17.1,none,15,15,8,10,10,9,17,0,94,97,20,18,0,0,50,FR,FR,34,2,5.38,22,0.1225,1.57,5647,0.04,10.66,89.16,0,0.02,0.07,0,0.04,1.49,7.84,1.33,0.41,81.87,6.89,0,0,0,0.02,18.84,0,0,HIGHLAND,2.43,3.89,4.49275
AL-A-480-205-96,MILL RUN,96,W,A,AL,NO,205,2,Y,4/4/1996,Y,6/19/1996,39.630419,78.641581,658649,337617,2141001,Potomac River (Lower North Branch),21,8.9,7.1,6.75,71.4,51,232.5,1.2,0.46,12.98,none,11,15,11,14,14,6,17,35,65,90,18,19,1,0,50,FR,FR,82,3,1.9,14.25,0.105,0.47,1105,0,19.1,80.54,0,0,0.18,0,0,7.33,9.86,1.9,0.54,73.67,6.33,0,0,0,0,43.73,0,0,HIGHLAND,1.29,3.67,3.54455
AL-A-485-220-96,POTOMAC R UT2,96,W,A,AL,NO,220,2,Y,4/10/1996,Y,6/24/1996,39.588419,78.853889,644502,277512,2141001,Potomac River (Lower North Branch),16,7.9,6.82,7.56,71.9,105,140.6,1.7,0.68,13.86,AD,13,16,11,15,10,15,18,45,45,96,11,6,1,0,50,FR,FR,49,8.5,2.2,9.5,0.035,0.12,801,0.5,0.5,96.88,0,1.62,0,0,0.5,0.25,0.12,0.12,0,94.76,2.12,0,0,1.62,0,23.99,0,0,HIGHLAND,1,3.22,2.45
AL-A-485-227-96,POTOMAC R UT2,96,W,A,AL,NO,227,2,Y,4/10/1996,Y,6/24/1996,39.5803,78.847181,641504,279343,2141001,Potomac River (Lower North Branch),18.9,7.2,7.5,7.62,137.1,262,446.6,2.1,0.74,23.5,none,11,16,7,7,12,1,13,40,65,50,1,2,0,0,0,,PK,20,2.5,2.2,12.75,0.105,0.39,1124,10.85,5.25,82.38,0,1.25,0.18,0.18,10.68,0.89,4,0.36,0.09,79.89,2.4,0,0,1.25,0,14.84,0,0,HIGHLAND,1,1.44,8.5
AL-A-500-103-95,WHITE SULPHUR RUN UT1,95,W,A,AL,UP,103,1,Y,3/27/1995,Y,7/28/1995,39.636669,78.4968,660225,378431,2140511,Fifteen Mile Creek,18.5,6.1,6.59,6.08,45.1,82,125.31,2,0.15,11.32,AD,6,11,6,3,6,19,17,20,35,95,15,19,1,1,50,FR,FR,20,1.8,0.75,4.5,0.0225,0.1,158.93,0,0,99.76,0,0,0,0,0,0,0,0,3.42,89.7,6.64,0,0,0,0,12.89,0,0,HIGHLAND,,3.22,4.20168
AL-A-524-211-95,MUDLICK HOLLOW,95,W,A,AL,UP,211,2,Y,3/22/1995,Y,6/19/1995,39.662339,78.405011,669164,404424,2140511,Fifteen Mile Creek,16,7.6,7.2,7.19,172.1,215,240.62,2,0.23,16.78,none,4,5,6,6,6,15,18,20,40,97,18,19,0,0,50,FR,FR,20,2,1.5,7.25,0.055,0.04,1929.02,3.28,8.98,87.78,0.02,0.02,0.04,0.04,3.25,2.35,5.22,1.41,2.17,83.55,2.06,0.02,0,0,0.02,7.41,0,0,HIGHLAND,3,4.33,4.64286
AL-A-550-204-96,FROG HOLLOW,96,W,A,AL,NO,204,2,Y,4/4/1996,Y,6/19/1996,39.575719,78.687339,638964,324361,2141001,Potomac River (Lower North Branch),18.4,8.3,7.13,7.32,115.6,147,338.8,2.3,0.37,27.66,none,9,5,8,10,8,6,16,0,95,70,4,7,0,0,0,,PV,42,3,1.93,16.25,0.5825,0.78,1631,0,12.02,87.49,0,0.43,0,0,0,2.15,7.54,2.33,0.61,80.2,6.68,0,0,0,0.43,5.25,0,0,HIGHLAND,3,3.89,3.46154
AL-A-553-306-95,FLINTSTONE CR,95,W,A,AL,UP,306,3,Y,3/28/1995,Y,6/9/1995,39.70805,78.567719,686559,358905,2140512,Town Creek,18.5,9.2,7.45,8.01,77.9,72,449.64,2,0.25,14.21,none,15,13,12,10,19,16,18,0,95,50,2,15,1,0,0,,PV,50,1.5,9.05,26.75,0.595,13.15,18943.41,0.02,11.48,88,0.01,0.1,0.06,0.01,0.01,3.27,3.81,4.4,1.69,78.65,7.61,0.01,0.05,0,0.1,77.61,0,0,HIGHLAND,4.71,3.22,4.20588
AL-A-567-126-96,SAND SPRING RUN UT1,96,W,A,GA,NO,126,1,Y,4/17/1996,Y,6/26/1996,39.670761,78.954919,675081,249686,2141004,Georges Creek,15,7.5,4.57,4.85,404.1,255,-12.7,1.6,0.62,25.54,AMD,9,1,11,15,4,1,18,75,90,97,16,5,7,1,50,FR,FR,58,3,1.15,13.5,0.165,0.3,161,0.62,10.56,86.96,0,1.24,0,0,0.62,0.62,9.32,0.62,0,83.85,3.11,0,0,1.24,0,8.15,0,0,HIGHLAND,,1.67,3.0678
AL-A-578-110-96,MILL RUN UT1,96,W,A,AL,NO,110,1,Y,4/11/1996,N,7/12/1996,39.536881,78.917969,626102,259060,2141001,Potomac River (Lower North Branch),,,6.55,,54.4,,63.6,1.5,0.5,13.97,AD,,,,,,,,,,,,,,,,,,,,,,,,352,0,0,100.28,0,0,0,0,0,0,0,0,0,93.75,6.53,0,0,0,0,,,,HIGHLAND,,3.22,1.94898
AL-A-585-122-96,POTOMAC R UT3,96,W,A,AL,NO,122,1,Y,4/10/1996,Y,6/24/1996,39.58285,78.831231,642343,283856,2141001,Potomac River (Lower North Branch),16.6,8.2,8.08,8.19,467.3,398,3503.9,2.3,2.46,37.01,none,14,5,9,12,10,11,15,60,70,92,13,12,0,1,50,FR,FR,38,3.2,2.63,19.5,0.0825,0.27,383,1.31,51.17,45.17,1.83,0,0.26,0,1.31,27.68,13.05,10.44,0.78,37.6,6.79,1.83,0,0,0,30.03,0,0,HIGHLAND,1.29,3.22,4.31884
AL-A-626-216-96,MILL RUN,96,W,A,AL,NO,216,2,Y,4/11/1996,Y,7/12/1996,39.546089,78.90955,629406,261506,2141001,Potomac River (Lower North Branch),15.2,8.5,7.51,7.72,103.7,139,629.4,1.1,0.68,12.89,none,15,10,14,15,12,19,18,0,90,95,17,19,0,1,50,FR,FR,90,17.5,3.18,12.75,0.14,0.51,498,0,0,100.6,0,0,0,0,0,0,0,0,0.2,96.79,3.61,0,0,0,0,48.31,1,0,HIGHLAND,2.71,3.67,2.83333
AL-A-635-113-95,TOWN CR UT1,95,W,A,AL,UP,113,1,Y,3/27/1995,Y,6/19/1995,39.666261,78.552219,671265,363005,2140512,Town Creek,15,4.8,6.95,5.81,57.5,50,131.4,2,0.11,15.28,AD,1,1,2,1,1,20,18,0,10,90,1,0,0,0,30,FR,DI,12,8.5,0.6,4.25,0.025,0.01,81.99,0,0.83,100.43,0,0,0,0,0,0,0.83,0,0.41,87.14,12.87,0,0,0,0,0.31,0,0,HIGHLAND,,3.44,2.20482
AL-A-646-207-95,RUBY HOLLOW,95,W,A,AL,UP,207,2,Y,3/24/1995,Y,6/21/1995,39.600869,78.444269,646949,393019,2140508,Potomac River (Allegany County),17.8,2.7,7.19,6.58,70.3,105,313.47,2,0.17,18.08,none,2,1,2,1,0,17,16,50,2,85,2,15,0,0,2,FR,DI,9,4,0.8,2,0,0.1,850.1,0.04,0.28,99.5,0,0,0.04,0,0.04,0,0.28,0,0.68,91.89,6.92,0,0,0,0,1.06,0,0,HIGHLAND,1,2.33,3.9292
AL-A-688-319-95,FIFTEENMILE CR,95,W,A,AL,UP,319,3,Y,3/21/1995,Y,7/20/1995,39.698081,78.450261,682381,391891,2140511,Fifteen Mile Creek,17.9,7.7,7.12,6.56,45.8,49,181.48,5,0.32,10.09,AD,13,14,12,12,17,18,18,10,99,90,9,16,0,2,50,FR,FR,70,1.5,7.98,41.5,0.2375,8.22,9795.52,0,5.33,87.36,0.03,7.23,0.04,0,0,0.83,2.15,2.34,7.34,72.09,7.93,0.03,0,0,7.23,80.32,0,0,HIGHLAND,4.14,3.44,2.9703
AL-A-706-228-96,COLLIER RUN,96,W,A,AL,NO,228,2,Y,4/15/1996,Y,8/6/1996,39.664081,78.65985,671002,332693,2141001,Potomac River (Lower North Branch),20.4,7.5,6.25,6.79,40.6,32,30.6,2.4,0.27,9.76,AD,11,5,6,12,11,10,13,45,65,80,11,16,2,0,50,FR,FR,32,2.5,2.65,19.5,0.02,0.13,962,0,2.08,97.82,0,0,0,0,0,0.42,1.25,0.42,0.94,90.02,6.86,0,0,0,0,18.53,0,0,HIGHLAND,1.29,3.89,3.68085
AL-A-709-303-95,FIFTEENMILE CR,95,W,A,AL,UP,303,3,Y,3/21/1995,Y,7/20/1995,39.7172,78.445811,689326,393256,2140511,Fifteen Mile Creek,22,8.4,6.98,6.82,50.8,52,165.54,2,0.29,10.54,AD,8,5,12,11,14,16,13,0,100,65,5,6,0,0,13,FR,GR,54,1.5,7.15,22.75,0.2375,9.81,6341.52,0.01,7.25,83.51,0.03,9.19,0.04,0,0.01,1.13,2.82,3.31,7.67,68.15,7.69,0.03,0,0,9.19,13.84,0,0,HIGHLAND,4.43,3.89,2.73171
AL-A-726-115-96,BRADDOCK RUN UT1,96,W,A,AL,NO,115,1,Y,4/10/1996,Y,7/9/1996,39.636539,78.875311,662148,271834,2141003,Wills Creek,17.6,7.7,6.73,6.57,133.2,65,85.6,0.8,1.32,41.68,AMD,6,6,5,6,6,18,19,45,45,97,19,19,0,0,50,FR,FR,38,13.5,1.35,14,0.005,0.01,127,0,0,100.79,0,0,0,0,0,0,0,0,0,98.43,2.36,0,0,0,0,6.24,0,0,HIGHLAND,,3.44,2.29487
AL-A-729-119-95,PICLIC RUN UT1,95,W,A,AL,UP,119,1,Y,3/21/1995,N,,39.667339,78.489239,671360,380741,2140511,Fifteen Mile Creek,,,6.35,,40.9,,55.87,4,0.14,12.37,AD,,,,,,,,,,,,,,,,,,,,,,,,61.98,0,0.55,98.81,0,0,0,0,0,0,0.55,0,0,96.06,2.74,0,0,0,0,,,,HIGHLAND,,3,5.69136
AL-A-731-313-95,MURLEY BR,95,W,A,AL,UP,313,3,Y,4/28/1995,Y,6/9/1995,39.664739,78.613789,671011,345664,2140512,Town Creek,14.5,9,8.08,7.6,373,360,4286.44,0,1.63,26.36,none,15,16,9,10,16,11,11,20,90,60,3,12,0,0,1,TG,PV,42,1.6,4.15,24,0.31,3.82,3312.73,0.03,32.09,67.78,0,0.01,0.08,0,0.03,10.47,20.25,1.37,0.48,62.23,5.06,0,0,0,0.01,53.42,0,0,HIGHLAND,3.86,3.44,1.96528
AL-A-999-117-96,WILLS CR UT1,96,W,A,AL,NO,117,1,Y,4/8/1996,Y,7/12/1996,39.712819,78.770081,689338,302008,2141003,Wills Creek,19.8,8.9,8.09,7.9,365.9,323,2622,1.7,2.76,42.97,none,6,11,8,7,7,14,17,35,60,80,5,20,1,0,0,,GR,16,3.5,1.28,6.25,0.055,0.06,440,0,0.68,98.18,0,1.14,0,0,0,0,0.68,0,9.32,74.55,14.32,0,0,1.14,0,11.36,0,0,HIGHLAND,1,3.89,4.54167
BA-N-001-211-96,STEMMERS RUN,96,C,N,BA,PP,211,2,Y,3/7/1996,Y,7/16/1996,39.35,76.497,552825,942333,2130901,Back River,22.9,8.1,7.21,7.4,621.1,455,841.4,8.3,0.68,13.35,none,9,9,10,16,2,16,11,50,95,80,3,4,2,2,0,,PV,106,0.5,5.3,41.25,0.0725,1.5,2425,60.41,17.73,21.77,0,0,0.04,5.86,54.56,9.2,5.2,3.34,0.54,18.85,2.39,0,0,0,0,67.34,0,0,EPIEDMNT,1.67,1,9.25
BA-N-011-307-95,HERBERT RUN,95,C,N,BA,PP,307,3,Y,3/27/1995,Y,7/24/1995,39.222331,76.690919,505999,887568,2130906,Patapsco River Lower North Branch,23.3,5.8,7.47,7.16,445,400,1994.4,2,1.1,38.58,none,10,9,12,16,10,5,5,10,65,90,2,6,1,0,0,,PV,109,0.3,8.88,48.75,0.0925,2.21,4167.36,65.14,14.74,19.98,0.09,0,0.14,11.77,53.38,10.64,2.81,1.3,0.73,13.78,5.2,0.09,0.27,0,0,83.73,0,0,COASTAL,3.75,1.57,6.56
BA-N-019-301-95,WEST BR HERBERT RUN,95,C,N,BA,PP,301,3,Y,3/27/1995,Y,6/22/1995,39.249781,76.7041,515983,883799,2130906,Patapsco River Lower North Branch,19.9,8.3,8.39,7.78,374,476,1331.36,2,1.73,38.3,none,12,16,12,12,12,10,7,30,80,75,1,4,1,0,0,,PV,71,1,2.18,11.75,0.1975,0.22,1827.38,52.56,20.89,26.38,0.15,0,0.11,5.46,47.11,18.28,0.91,1.69,0.88,19.44,6.05,0.15,0.02,0,0,66.12,0,0,EPIEDMNT,2.33,3,5.87838
BA-N-019-308-95,WEST BR HERBERT RUN,95,C,N,BA,PP,308,3,Y,3/27/1995,Y,6/22/1995,39.246019,76.698169,514620,885483,2130906,Patapsco River Lower North Branch,21.5,9.3,8.84,8.2,488,634,1876.29,2,0.78,39.93,none,13,13,12,11,15,2,16,40,80,85,1,2,0,0,0,,HO,80,0.9,3.53,16.75,0.085,0.7,1961.41,52.63,21.89,25.22,0.16,0,0.1,5.13,47.5,18.8,1.2,1.89,0.82,18.65,5.74,0.16,0.02,0,0,63.36,0,0,EPIEDMNT,1.67,1.57,7
BA-N-045-223-96,MOORE'S RUN,96,C,N,BA,PP,223,2,Y,3/7/1997,Y,7/17/1996,39.303,76.53,535517,933063,2130901,Back River,23.4,7.5,7.3,7.22,742.6,330,1116,6.1,1.46,19.97,none,8,12,12,11,12,1,5,30,20,30,1,2,4,0,0,,PV,78,1.5,16.95,35.25,0.515,22.93,11859,76.36,11.11,11.4,0.19,0.07,0.88,15.41,60.95,6.68,2.27,2.17,0.47,8.36,2.47,0.19,0.1,0,0.07,52.12,0,0,COASTAL,3.25,1,10
BA-N-047-128-96,REDHOUSE RUN,96,C,N,BA,PP,128,1,Y,3/7/1996,Y,7/2/1996,39.342,76.514,549632,937396,2130901,Back River,21.6,7.9,7.07,7.53,439.3,250,668.4,14.4,0.47,11.13,none,15,10,8,18,5,11,8,80,90,90,2,2,0,3,0,,PV,130,1.1,4.6,51,0.1025,1.17,957,73.88,7.73,18.29,0,0,0,6.06,67.82,4.7,1.99,1.04,0,15.36,2.93,0,0,0,0,77.01,0,0,EPIEDMNT,1.22,1.29,5.5
BA-N-057-113-96,PATAPSCO R UT1,96,C,N,BA,PP,113,1,Y,3/22/1996,Y,6/5/1996,39.229997,76.674,508691,892362,2130906,Patapsco River Lower North Branch,16.4,1,7.4,7.15,640.4,415,1887.2,8.2,1.22,35.86,none,12,5,3,13,0,7,5,98,40,95,4,2,2,3,0,,RR,47,0.2,1.08,8,0,0.01,620,72.42,14.52,13.23,0,0,0,26.13,46.29,2.26,9.03,3.23,0.65,10,2.58,0,0,0,0,20.81,0,0,COASTAL,1,1,10
BA-N-065-215-96,STEMMERS RUN,96,C,N,BA,PP,215,2,Y,3/8/1996,Y,7/2/1996,39.365,76.515,558310,937232,2130901,Back River,23.3,8.9,7.36,7.42,2418.8,402,1363.7,5.2,1.45,28.48,none,16,14,13,16,12,9,6,70,60,55,5,9,1,0,0,,LN,75,1.2,2.55,28.25,0.16,1.26,1177,62.02,15.46,22.26,0,0,0,6.8,55.23,9.09,4.08,2.29,0.17,19.46,2.63,0,0,0,0,82.33,0,0,EPIEDMNT,2.56,1,6.71429
BA-P-002-303-96,JONES FALLS,96,C,P,BA,PP,303,3,Y,3/8/1996,Y,9/3/1996,39.412,76.708,575232,882529,2130904,Jones Falls,17.7,9.7,,7.87,340.7,264,1314.2,2.5,1.69,10.08,none,18,16,19,17,19,6,10,30,95,95,6,12,4,14,0,,PA,69,1.4,6.18,29.25,0.4775,13.04,7862,8.1,31.33,57.47,0.06,2.84,0.2,0.23,7.87,9.08,13.25,8.99,2.52,46.2,8.47,0.06,0.28,2.84,0,99.92,0,0,EPIEDMNT,2.56,3,4.53165
BA-P-002-319-95,JONES FALLS,95,C,P,BA,PP,319,3,Y,3/20/1995,Y,6/21/1995,39.412189,76.708719,575133,882303,2130904,Jones Falls,19.2,8.6,8.01,7.93,281,294,1930.59,1,1.81,10.59,none,9,17,16,12,16,12,10,10,95,88,5,8,6,2,0,,LN,61,1.1,5.53,40,0.365,7.08,7816.36,7.77,31.61,57.52,0.07,2.86,0.2,0.29,7.48,9.03,13.51,9.07,2.47,46.41,8.37,0.07,0.28,2.86,0,72.23,0,0,EPIEDMNT,2.56,2.78,2.71963
BA-P-008-101-95,NORTH BR PATAPSCO R UT2 TO UT1,95,C,P,BA,PP,101,1,Y,4/6/1995,Y,7/26/1995,39.494339,76.862761,604952,838732,2130907,Liberty Reservoir,22.2,8,7.43,7.98,178.5,202,513.17,1,1.49,16.14,none,14,8,8,11,10,6,5,25,65,97,15,18,2,0,50,FR,OF,35,1,1.2,8.25,0.1425,0.22,608.81,1.23,41.58,55.83,0.11,0,1.51,0.06,1.17,10.56,13.69,17.32,3.63,44.32,7.88,0.11,0,0,0,34.04,0,0,EPIEDMNT,3.67,3.89,4.41237
BA-P-013-328-96,DEAD RUN,96,C,P,BA,PP,328,3,Y,3/11/1996,Y,6/10/1996,39.314,76.728,539413,877014,2130905,Gwynns Falls,20.5,6.2,7.63,7.77,2783.7,920,3311.2,1.8,2.13,12.78,none,15,11,14,17,17,11,10,75,85,90,6,6,0,0,17,FR,PV,68,0.9,5.55,30,0.1825,6.93,2758,82.02,11.2,6.24,0,0.4,0,18.24,63.78,4.6,5.44,1.16,0.07,5.26,0.73,0,0.18,0,0.4,48.82,0,0,EPIEDMNT,1.44,1.67,4.61905
BA-P-015-120-96,BAISMANS RUN,96,C,P,BA,GU,120,1,Y,4/4/1996,Y,6/3/1996,39.481,76.698,600032,885167,2130805,Loch Raven Reservoir,12.9,9.6,6.97,7.14,142,110,194.5,1.1,2.55,3.99,AD,16,12,10,10,15,14,10,40,65,95,17,19,4,3,50,FR,FR,43,1,2.58,16.75,0.2575,0.83,454,0,41.19,58.59,0,0,0,0,0,22.69,9.25,9.25,0.22,55.73,2.64,0,0,0,0,80.32,1,0,EPIEDMNT,1.89,4.33,3.19608
BA-P-025-102-96,BEAVERDAM RUN,96,C,P,BA,GU,102,1,Y,4/16/1996,Y,7/11/1996,39.472,76.722,597013,878428,2130805,Loch Raven Reservoir,15.1,12.6,6.37,6.52,81.9,71,180,4.9,1.53,4.81,AD,16,15,15,14,14,10,10,30,95,85,17,11,0,6,50,FR,FR,72,1.8,3,22.5,0.1575,1.36,605,0,42.48,56.69,0,0,0,0,0,9.92,18.35,14.21,1.49,49.26,1.65,0,4.3,0,0,94.26,1,0,EPIEDMNT,3.44,3.22,3.54217
BA-P-042-116-96,LITTLE GUNPOWDER FALLS,96,C,P,BA,GU,116,1,Y,4/17/1996,Y,6/27/1996,39.592,76.556,640890,925042,2130804,Little Gunpowder Falls,21.1,9.8,6.75,8,125.3,130,239.9,0.9,4.15,6.55,none,12,11,13,15,15,5,9,70,75,75,8,16,4,6,0,,FR,80,1,5.13,29.75,0.1025,2.7,1571,0,67.92,31.64,0,0,0.32,0,0,29.66,25.59,12.67,0.38,29.6,1.65,0,0,0,0,86.97,0,0,EPIEDMNT,4.11,3.67,4.35088
BA-P-055-103-96,PARKER BR UT1,96,C,P,BA,GU,103,1,Y,4/2/1996,Y,6/5/1996,39.53,76.556,618394,925273,2130804,Little Gunpowder Falls,14.3,9.6,7.11,7.47,88.9,86,359.3,2.1,1.77,6.36,none,5,6,6,6,7,3,3,90,65,60,7,16,3,1,50,FR,FR,40,3,1.85,10.75,0.0525,0.18,177,0,68.36,32.2,0,0,0,0,0,2.82,42.37,23.16,0,28.25,3.95,0,0,0,0,5.25,0,0,EPIEDMNT,,2.56,5.88235
BA-P-057-209-96,GREENE BR,96,C,P,BA,GU,209,2,Y,4/9/1996,Y,6/18/1996,39.506,76.602,609587,912426,2130805,Loch Raven Reservoir,20.5,9.1,7.43,7.71,182.2,182,488.5,1.4,2.3,9.72,none,10,10,7,7,15,6,12,60,90,60,1,11,1,0,0,,LN,41,1,4.48,22.75,0.395,5.1,2225,2.83,40.22,56.58,0,0.09,0.31,0.18,2.65,16.63,12.4,11.19,3.46,44.49,8.49,0,0.13,0,0.09,20.13,0,0,EPIEDMNT,2.78,3.44,3.02128
BA-P-065-117-96,BUSH CABIN RUN,96,C,P,BA,GU,117,1,Y,4/17/1996,Y,6/13/1996,39.592,76.722,640731,878215,2130805,Loch Raven Reservoir,14.7,10.2,6.84,7.01,179.7,172,311.4,1,4.95,9.4,none,16,13,14,12,15,10,7,50,85,65,15,15,1,1,50,FR,FR,51,2,2.15,11,0.32,0.53,298,0.67,86.91,12.42,0,0,0,0,0.67,40.94,25.5,20.47,1.68,8.39,2.35,0,0,0,0,70.56,1,0,EPIEDMNT,,4.33,2.85263
BA-P-065-119-96,BUSH CABIN RUN,96,C,P,BA,GU,119,1,Y,4/8/1996,Y,7/11/1996,39.594997,76.716,641729,879911,2130805,Loch Raven Reservoir,13.7,11.9,7.31,7.39,164.5,152,307.8,1,4.58,7.85,none,12,14,9,8,13,10,15,55,90,80,16,16,1,1,50,FR,FR,37,1,2.73,15.75,0.22,1.14,626,0.32,86.58,13.42,0,0,0,0,0.32,38.02,31.47,17.09,1.28,10.06,2.08,0,0,0,0,37.81,1,0,EPIEDMNT,1.89,3,2.66102
BA-P-074-106-96,TOWSON RUN UT1,96,C,P,BA,PP,106,1,Y,3/8/1996,Y,7/2/1996,39.397,76.625,569675,906101,2130904,Jones Falls,19,8.7,7.43,7.11,2963.2,453,1124.6,3,2,33.24,none,7,11,8,7,10,6,18,80,70,80,1,8,0,0,0,,PV,29,3.8,1.93,9.5,0.305,0.26,339,72.27,4.13,23.89,0,0,0,6.19,66.08,2.95,0.29,0.88,3.24,12.68,7.96,0,0,0,0,6.87,0,0,EPIEDMNT,1,2.11,4.98958
BA-P-077-315-96,NORTH BR,96,C,P,BA,PP,315,3,Y,3/8/1996,Y,8/29/1996,39.429,76.719,581340,879449,2130904,Jones Falls,18.5,8.3,7.6,7.37,445.9,182,795,2.6,1.32,7.36,none,19,18,18,17,16,15,12,20,90,87,14,15,4,2,50,FR,FR,121,2.3,7.65,44.75,0.435,6.85,3836,4.12,33.24,56.62,0.08,5.81,0.18,0.05,4.07,4.9,18.9,9.44,1.82,47.99,6.7,0.08,0.1,5.81,0,93.05,0,0,EPIEDMNT,3,3.67,4.48
BA-P-077-322-95,NORTH BR,95,C,P,BA,PP,322,3,Y,4/10/1995,Y,6/21/1995,39.434831,76.729631,583362,876371,2130904,Jones Falls,17.1,8.2,7.65,7.5,154.9,216,1058.19,2,1.37,4.77,none,14,17,10,11,16,12,10,15,90,90,11,16,4,0,39,FR,PV,31,1.2,5,15.25,0.1725,1.38,3114.59,3.44,36.51,52.69,0.09,7.17,0.17,0.03,3.41,4.68,21.07,10.76,1.67,45.24,5.65,0.09,0.13,7.17,0,58.96,0,0,EPIEDMNT,2.56,3.44,2.19588
BA-P-080-314-97,EBAUGH'S CR,97,E,P,BA,SQ,314,3,Y,3/3/1997,Y,6/17/1997,39.712,76.59,684511,915495,2120202,Deer Creek,15.8,9.6,7.3,6.29,560.8,589,399.5,1.7,5.11,7.44,none,14,11,17,18,15,5,3,25,85,80,9,11,0,0,50,FR,FR,88,3.5,5.1,36.5,0.33,6.54,4347.61,2.96,72.88,23.81,0.26,0,0.15,0.49,2.47,21.15,44.63,7.11,1.14,20.53,1.33,0.26,0.81,0,0,68.39,0,0,EPIEDMNT,3.67,2.33,4.91667
BA-P-089-122-96,LITTLE GUNPOWDER R UT1,96,C,P,BA,GU,122,1,Y,4/9/1996,Y,6/5/1996,39.515,76.488,612819,944421,2130804,Little Gunpowder Falls,18.3,10.6,7.11,7.72,152.5,130,284.7,1.2,3.53,5.93,none,15,11,10,9,15,11,9,25,80,60,10,15,2,4,0,,PA,43,0.5,2.98,20.75,0.56,4.03,1611,1.24,66.05,32.46,0.25,0,0.06,0,1.24,34.14,12.79,19.12,1.74,25.08,5.15,0.25,0.5,0,0,84.2,1,0,EPIEDMNT,4.11,3.22,3.94872
BA-P-103-124-96,CARROLL BR UT1,96,C,P,BA,GU,124,1,Y,4/16/1996,Y,7/9/1996,39.542,76.624,622613,906155,2130805,Loch Raven Reservoir,25.9,7.7,7.32,7.22,200.2,192,885.7,3.3,2.71,17.27,none,10,13,8,8,10,9,8,70,90,65,5,15,1,1,50,LN,LN,32,3.8,1.63,17.5,0.165,0.39,144,0,88.19,11.11,0,0,0.69,0,0,45.14,34.03,9.03,0.69,9.03,1.39,0,0,0,0,18.84,0,0,EPIEDMNT,,2.78,5.70833
BA-P-107-123-95,NORTH BR,95,C,P,BA,PP,123,1,Y,3/10/1995,Y,6/19/1995,39.435411,76.747461,583557,871333,2130904,Jones Falls,20.2,7,7.26,7.87,82,76,609.74,2,0.5,3.35,none,3,2,3,3,6,3,5,100,40,95,15,16,7,1,0,,CP,17,0,0.55,5,0,0.03,265.07,0,48.39,51.86,0.13,0,0,0,0,3.08,33.37,11.94,0,51.47,0.38,0.13,0,0,0,2.29,0,0,EPIEDMNT,,3,5.40741
BA-P-116-114-96,PRETTYBOY BR,96,C,P,BA,GU,114,1,Y,4/8/1996,Y,6/12/1996,39.603,76.747,644445,871178,2130806,Prettyboy Reservoir,18.4,10.2,7.09,7.27,166.4,160,881.3,1.1,4.82,14.03,none,10,11,6,9,7,6,3,60,35,70,13,14,2,1,10,FR,CP,27,1.5,2.15,5.5,0.13,0.03,90,0,91.11,7.78,0,0,0,0,0,51.11,36.67,3.33,1.11,3.33,3.33,0,0,0,0,12,0,0,EPIEDMNT,,1.67,3.27778
BA-P-121-111-96,DELAWARE RUN,96,C,P,BA,GU,111,1,Y,4/4/1996,Y,7/8/1996,39.479,76.801,599479,856050,2130805,Loch Raven Reservoir,17.9,11.2,7.52,7.78,290.4,249,1086.2,1.7,1.6,8.89,none,11,7,8,8,9,3,4,70,50,90,11,6,5,0,50,FR,FR,34,1.8,1.45,14.75,0.1525,0.39,273,10.99,10.26,78.39,0,0,0,0,10.99,2.93,2.93,4.4,1.47,70.33,6.59,0,0,0,0,10,0,0,EPIEDMNT,,4.33,3.20408
BA-P-124-302-96,LITTLE FALLS,96,C,P,BA,GU,302,3,Y,4/11/1996,Y,6/4/1996,39.679,76.699,672220,884809,2130805,Loch Raven Reservoir,17,10.5,7.31,7.48,150.5,118,277,1.2,4.67,5.69,none,17,16,17,17,19,14,12,40,85,70,10,19,2,1,50,FR,FR,63,1.8,8.7,38.5,0.4175,13.5,7054,0.28,74.14,24.78,0.54,0,0.24,0.07,0.21,27.71,34.99,11.44,1.38,21.65,1.63,0.54,0.13,0,0,89.51,0,0,EPIEDMNT,3.22,2.78,4.29167
BA-P-125-126-96,SCOTTS LEVEL BR,96,C,P,BA,PP,126,1,Y,3/11/1996,Y,6/6/1996,39.362,76.762,556667,867269,2130905,Gwynns Falls,17.2,8.42,7.67,7.63,564.3,305,1576.4,2.7,1.6,12.93,none,13,7,9,17,4,5,7,90,95,50,2,6,1,0,3,LN,PV,93,0.7,6.18,65,0.025,1.6,2109,66.57,13.85,19.82,0,0,0,3.7,62.87,6.02,3.84,3.98,0.24,17.83,1.75,0,0,0,0,6.36,0,0,EPIEDMNT,2.56,1.44,9.52381
BA-P-141-206-96,BUSH CABIN RUN,96,C,P,BA,GU,206,2,Y,4/8/1996,Y,7/10/1996,39.609,76.691,646706,887151,2130805,Loch Raven Reservoir,16.1,11.5,7.34,7.49,134.1,124,249.9,0.9,3.12,6.32,none,17,16,15,14,17,16,15,20,90,75,19,19,1,1,50,FR,FR,60,2,4.95,26.75,0.215,4.54,1925,0.1,63.12,36.57,0,0,0.1,0,0.1,23.17,26.96,12.99,4.68,27.48,4.42,0,0,0,0,86.97,0,0,EPIEDMNT,3,3.89,3.73973
BA-P-143-104-96,WATERSPOUT RUN,96,C,P,BA,GU,104,1,Y,4/4/1996,Y,6/3/1996,39.494997,76.752,605201,870071,2130805,Loch Raven Reservoir,12.4,10.6,7.75,7.42,139.7,76,942.2,2,1.23,4.71,none,13,12,10,11,15,8,10,40,90,85,11,18,8,0,5,FR,PA,35,0.4,3.9,16,0.3275,1.66,948,0.42,44.51,54.85,0,0,0.21,0,0.42,13.61,11.08,19.83,0.32,51.05,3.48,0,0,0,0,47.29,0,0,EPIEDMNT,2.78,4.33,3.86813
BA-P-144-322-96,GWYNNS FALLS,96,C,P,BA,PP,322,3,Y,3/11/1996,Y,9/3/1996,39.367,76.739,558575,873723,2130905,Gwynns Falls,18.6,8.9,7.68,7.2,467.6,290,1001.6,3.2,0.33,47.39,none,17,14,18,18,1,13,7,30,100,85,6,5,9,6,0,,LN,70,0.4,9.23,59,0.2275,19.5,16327,25.26,40.23,33.82,0.34,0.25,0.12,3.49,21.77,7.49,22.23,10.52,2.71,25.52,4.72,0.34,0.86,0.25,0,80.96,0,0,EPIEDMNT,3,3,3.97727
BA-P-145-316-96,GWYNNS FALLS,96,C,P,BA,PP,316,3,Y,3/11/1996,Y,7/8/1996,39.384997,76.761,565106,867466,2130905,Gwynns Falls,19.9,8.5,7.76,7.55,427.7,263,1021.1,1.8,2.03,11.62,none,12,10,17,18,16,7,7,40,60,80,15,10,7,5,50,FR,FR,71,1.1,9.88,53.5,0.2225,22.08,13869,21.61,42.97,34.64,0.4,0.3,0.1,2.91,18.7,7.12,24.73,11.12,2.96,26.04,4.76,0.4,0.88,0.3,0,90.61,0,0,EPIEDMNT,2.33,2.33,4.43137
BA-P-145-327-96,GWYNNS FALLS,96,C,P,BA,PP,327,3,Y,3/11/1996,Y,7/8/1996,39.386,76.764,565493,866622,2130905,Gwynns Falls,19.9,8.9,7.67,7.56,442.3,263,1007.5,1.8,2.13,11.76,none,17,14,15,16,18,15,10,50,95,75,15,15,3,4,50,FR,FR,83,1.2,8.63,40.25,0.2575,21.81,13842,21.65,43.03,34.55,0.4,0.3,0.1,2.92,18.73,7.13,24.77,11.13,2.97,25.96,4.75,0.4,0.88,0.3,0,93.05,0,0,EPIEDMNT,3.22,2.11,4.80645
BA-P-156-208-96,LITTLE FALLS,96,C,P,BA,GU,208,2,Y,4/8/1996,Y,6/18/1996,39.642,76.659,658822,896001,2130805,Loch Raven Reservoir,19.5,10.2,7.18,7.31,153.5,136,290.7,1.1,3.54,5.69,none,14,16,13,11,18,5,5,50,95,60,5,7,1,3,0,,DI,56,1.8,8.88,43,0.5425,34.02,1600,0.56,67.38,31.75,0.06,0,0.06,0,0.56,16.38,30.75,20.25,2.31,27.13,1.88,0.06,0.44,0,0,78.31,0,0,EPIEDMNT,4.33,3.89,2.625
BA-P-160-205-96,CARROLL BR,96,C,P,BA,GU,205,2,Y,4/3/1996,Y,7/1/1996,39.532,76.629,618862,904626,2130805,Loch Raven Reservoir,18.4,10.4,7.77,7.32,140.9,135,448,1.3,2.77,12.79,none,11,10,16,16,13,6,9,55,80,70,14,18,2,3,50,FR,FR,105,0.5,7.48,38.25,0.28,6.7,3896,0,71.87,27.62,0.23,0,0.23,0,0,27.08,32.57,12.22,2.36,20.87,3.7,0.23,0.69,0,0,74.24,0,0,EPIEDMNT,3.44,3,3.63492
BA-P-179-125-96,PARKER BR,96,C,P,BA,GU,125,1,Y,4/9/1996,Y,6/5/1996,39.536,76.556,620482,925194,2130804,Little Gunpowder Falls,15.8,10.2,6.97,7.33,99.6,90,295,2.3,2.42,6.08,none,14,11,13,15,12,6,5,50,60,85,13,17,2,8,50,FR,FR,55,1,3.65,14.75,0.2225,0.91,559,0,74.78,24.69,0,0,0.72,0,0,33.99,27.01,13.77,1.97,20.39,2.33,0,0,0,0,94.26,0,0,EPIEDMNT,4.11,3.67,3.32727
BA-P-191-211-96,MURPHY RUN,96,C,P,CR,GU,211,2,Y,4/15/1996,Y,6/10/1996,39.623,76.826,652005,848929,2130806,Prettyboy Reservoir,17.1,9.9,7.76,7.43,235.9,194,512.2,1.1,5.25,5.64,none,16,14,16,15,16,15,9,70,90,85,13,13,0,1,30,FR,LN,63,2,5.63,29.5,0.2125,2.16,2047,2.39,88.91,8.35,0,0,0.29,0.1,2.3,30.04,41.57,17.29,1.17,6.01,1.03,0,0.15,0,0,71.41,0,0,EPIEDMNT,4.11,3.44,5.2381
BA-P-202-202-96,PINEY CR,96,C,P,BA,GU,202,2,Y,4/16/1996,Y,7/1/1996,39.573,76.674,633857,891857,2130805,Loch Raven Reservoir,16.5,10.7,7.26,7.18,204.3,195,315.9,1.7,3.25,7.18,none,14,13,14,11,15,8,8,40,50,75,5,16,3,2,5,OF,PA,63,1,4.95,28.75,0.18,2.36,1682,1.43,60.46,37.87,0.12,0,0.06,0.06,1.37,26.1,24.26,10.11,4.4,30.56,2.85,0.12,0.06,0,0,76.15,1,0,EPIEDMNT,3.22,4.11,2.78947
BA-P-203-215-96,COWEN RUN,96,C,P,BA,GU,215,2,Y,4/9/1996,Y,6/6/1996,39.432,76.522,582416,935002,2130802,Lower Gunpowder Falls,17.7,11,8.12,8.38,277.3,272,1525.9,1.9,1.93,11.43,none,13,11,14,14,14,9,6,50,75,65,7,14,0,1,3,OF,LN,56,2,3.85,31.25,0.215,3.78,1913,2.82,35.13,61.53,0.37,0,0.1,0.1,2.72,14.53,10.93,9.67,3.76,48.09,9.2,0.37,0.47,0,0,58.46,0,0,EPIEDMNT,3,2.78,2.6875
BA-P-206-108-95,N BR PATAPSCO R UT2,95,C,P,BA,PP,108,1,Y,4/6/1995,Y,7/31/1995,39.491539,76.859261,603934,839721,2130907,Liberty Reservoir,21,9.3,7.54,7.76,191.1,222,632.81,1,2.47,9,none,14,16,13,12,11,10,8,10,70,90,16,17,3,2,50,FR,RR,68,0.7,3.8,37.5,0.0325,0.41,1359.21,4.93,50.36,44.48,0.03,0,0.08,0.15,4.78,10.81,25.86,13.69,1.05,37.22,5.88,0.03,0.33,0,0,72.23,0,0,EPIEDMNT,3.89,3.67,2.29752
BA-P-215-305-96,LITTLE GUNPOWDER R,96,C,P,BA,GU,305,3,Y,4/3/1996,Y,8/19/1996,39.536,76.519997,620514,935360,2130804,Little Gunpowder Falls,22.7,11.2,7.78,8.81,140.2,150,515.6,2.3,2.69,7.15,none,15,14,16,11,16,10,7,30,85,65,17,17,4,0,50,FR,FR,84,0.5,14.53,45.5,0.145,22.2,12690,0.33,69.85,29.24,0.17,0,0.43,0.04,0.29,32.36,24.13,13.36,2.35,22.97,3.12,0.17,0.8,0,0,74.63,0,0,EPIEDMNT,4.33,3.22,4.28916
BA-P-218-313-96,LITTLE FALLS,96,C,P,BA,GU,313,3,Y,4/13/1996,Y,6/24/1996,39.684,76.703,674244,883616,2130805,Loch Raven Reservoir,17,10.2,7.2,6.72,150.5,120,272,1.1,4.91,5.71,none,15,18,11,10,18,14,13,25,95,70,10,16,0,3,50,FR,FR,64,0.5,5.73,34,0.3225,15.56,6449,0.31,76.82,22.07,0.59,0,0.26,0.08,0.23,29,35.8,12.02,1.35,19.01,1.57,0.59,0.14,0,0,86.26,0,0,EPIEDMNT,3.22,4.56,3.64935
BA-P-234-109-95,DIPPING POND RUN,95,C,P,BA,PP,109,1,Y,4/10/1995,Y,6/20/1995,39.439511,76.698431,585095,885177,2130904,Jones Falls,15.9,8.7,6.77,7.54,109.7,122,218.57,1,2.51,2.09,none,13,13,7,8,10,7,7,25,65,95,9,16,2,3,40,FR,HO,34,2.8,1.15,5.5,0.1725,0.07,165.23,2.06,23.68,74.33,0,0,0.21,0.21,1.85,11.74,4.53,7.41,4.12,62.39,7.83,0,0,0,0,52.91,1,0,EPIEDMNT,,3.67,2.34711
BA-P-238-311-96,LITTLE FALLS,96,C,P,BA,GU,311,3,Y,4/11/1996,Y,6/26/1996,39.685,76.706,674630,882683,2130805,Loch Raven Reservoir,21,10.6,7.18,7.45,150.8,135,268.3,1.2,5.27,5.73,none,16,17,17,15,17,9,8,20,70,40,15,14,4,1,50,OF,FR,78,1,4.75,34.5,0.57,10.9,5993,0.33,77.81,21.01,0.62,0,0.27,0.08,0.25,29.7,36.14,11.96,1.2,18.14,1.52,0.62,0.15,0,0,86.01,0,0,EPIEDMNT,3.89,3.67,3.19417
BA-P-242-210-96,SECOND MINE BR,96,C,P,BA,GU,210,2,Y,4/10/1996,Y,7/9/1996,39.642,76.607,659105,910811,2130805,Loch Raven Reservoir,17.7,10.2,6.94,7.16,164.7,160,352.4,1.5,4.17,10.75,none,16,12,17,15,17,12,14,70,95,70,17,11,4,4,50,FR,FR,60,1,2.5,32.25,0.3625,4.06,2511,0,75.39,24.21,0.12,0,0.2,0,0,24.33,40.06,10.99,1.95,19.47,2.03,0.12,0.76,0,0,89.89,0,0,EPIEDMNT,4.11,3.44,3.09434
BA-P-262-111-96,GWYNNS FALLS UT1,96,C,P,BA,PP,111,1,Y,3/11/1996,Y,6/6/1996,39.322,76.733,542116,875403,2130905,Gwynns Falls,15.3,7,7.93,7.64,675.2,621,2334.4,3.2,1.99,29.01,none,12,11,5,13,8,6,7,80,50,80,1,2,1,0,0,,PV,41,1.8,1.4,14,0.0775,0.06,148,66.22,6.76,27.03,0,0,0,2.03,64.19,5.41,0,1.35,0,25,2.03,0,0,0,0,5.45,0,0,EPIEDMNT,,1.89,6.91667
BA-P-269-214-96,MOORE'S BR,96,C,P,BA,PP,214,2,Y,3/8/1996,Y,7/8/1996,39.384,76.686,564914,888678,2130904,Jones Falls,23,8.2,7.99,8.16,1388.7,482,2038.7,2.2,3.2,78.58,none,15,12,12,12,16,11,11,65,50,90,4,2,12,2,0,,DI,61,3.2,2.03,21,0.5475,2.09,789,52.47,19.26,26.62,0.25,1.27,0.13,4.69,47.78,6.46,8.11,4.69,1.9,19.26,5.45,0.25,0,0,1.27,56.96,0,0,EPIEDMNT,1,1.22,5.95652
BA-P-284-204-96,PARKER BR,96,C,P,BA,GU,204,2,Y,4/3/1996,Y,7/1/1996,39.539997,76.541,621712,929388,2130804,Little Gunpowder Falls,21.8,9.2,7.34,7.47,120,124,319.6,1.6,2.32,6.28,none,9,6,12,15,11,4,11,60,85,85,7,14,1,3,40,FR,LN,114,1.8,4.45,25.5,0.2175,2.32,1499,0,71.71,27.55,0.07,0,0.67,0,0,30.42,26.22,15.08,2.74,20.35,4.47,0.07,0,0,0,46.27,0,0,EPIEDMNT,4.33,3.44,4.02564
BA-P-291-217-95,FALLS RUN,95,C,P,BA,PP,217,2,Y,4/10/1995,Y,6/13/1995,39.374569,76.86515,561329,838124,2130906,Patapsco River Lower North Branch,14.3,9.4,7.9,7.48,157.8,210,694.39,1,2.19,10.27,none,14,11,15,11,14,16,15,20,100,60,1,16,0,0,20,OF,PK,48,1.4,2.2,25.25,0.21,0.96,1745.04,4.89,45.35,44.55,0.04,5.09,0.12,0.33,4.56,9.65,18.52,17.18,1.72,35.64,7.19,0.04,0,5.09,0,66.14,0,0,EPIEDMNT,3.67,4.33,3.23333
BA-P-302-115-96,COUNCILMANS RUN,96,C,P,BA,GU,115,1,Y,4/4/1996,Y,7/8/1996,39.473,76.769,597281,865147,2130805,Loch Raven Reservoir,24.3,9.1,7.4,8.36,200,181,524.9,1.7,1.58,6.43,none,10,11,6,5,6,4,7,60,60,50,6,16,2,1,3,OF,CP,27,1,1.33,7.5,0.1325,0.09,605,0,38.68,61.16,0,0,0,0,0,8.26,21.65,8.76,0.99,51.74,8.43,0,0,0,0,11.57,0,0,EPIEDMNT,2.11,3.67,2.74468
BA-P-312-309-96,THIRD MINE BR,96,C,P,BA,GU,309,3,Y,4/11/1996,Y,7/10/1996,39.639,76.637,657677,902185,2130805,Loch Raven Reservoir,20.1,9.8,7.35,7.71,136.8,136,281.4,2.5,3.14,5.68,none,16,14,16,14,18,15,17,70,95,70,16,15,1,0,50,FR,FR,76,1.2,8.15,28.5,0.3375,5.49,4382,0,57.6,42.15,0.07,0,0.09,0,0,22.59,25.99,9.01,1.46,38.11,1.92,0.07,0.66,0,0,70.56,0,0,EPIEDMNT,3.67,3.89,3.48276
BA-P-313-204-95,RED RUN,95,C,P,BA,PP,204,2,Y,4/3/1995,Y,6/20/1995,39.410161,76.80115,574326,856189,2130905,Gwynns Falls,17.7,8.4,7.59,7.49,139.8,170,925.37,2,2.09,5.5,none,16,17,15,18,17,15,14,20,92,75,10,11,0,0,50,FR,PV,73,0.7,7.13,39,0.0325,1.99,3332.42,6.52,40.11,51.88,0.2,1.24,0.08,0.2,6.32,6.51,22.03,11.57,10.06,32.29,9.08,0.2,0.45,1.24,0,74.63,0,0,EPIEDMNT,4.33,3,2.45299
BA-P-313-215-95,RED RUN,95,C,P,BA,PP,215,2,Y,4/3/1995,Y,6/19/1995,39.403981,76.800939,572073,856251,2130905,Gwynns Falls,16.6,8.6,7.64,7.53,161.6,180,868.02,2,1.98,4.98,none,16,17,17,17,17,10,6,10,50,70,11,18,2,2,45,FR,HO,118,0.9,5.83,31,0.1025,1.91,3635.79,5.98,40.75,51.87,0.2,1.13,0.07,0.19,5.79,5.98,23.89,10.88,9.49,33.09,8.88,0.2,0.41,1.13,0,92.21,0,0,EPIEDMNT,4.56,3.44,3.29126
BA-P-315-301-96,LONG GREEN CR,96,C,P,BA,GU,301,3,Y,4/3/1996,Y,6/6/1996,39.468,76.489997,595692,943854,2130802,Lower Gunpowder Falls,13.9,10,7.55,7.68,270.6,205,1514.2,2.3,4,9.31,none,8,6,16,14,15,4,3,75,60,25,5,13,1,1,0,,PV,105,1,7.25,58,0.25,9.86,5180,1.66,75.19,22.92,0.1,0,0.17,0.06,1.6,33.17,23.88,18.15,0.95,18.9,2.86,0.1,0.21,0,0,43.73,0,0,EPIEDMNT,2.56,2.33,3.63636
BA-P-320-304-97,DEER CR,97,E,P,BA,SQ,304,3,Y,3/3/1997,Y,6/17/1997,39.713,76.6,684907,912620,2120202,Deer Creek,19.1,9.9,7.43,7.15,174.4,179,517.4,1.1,5.26,6.36,none,17,15,17,17,16,15,8,15,97,70,7,15,1,3,0,,PA,60,4,4.78,36.75,0.3375,11.16,8296.66,2.2,70.25,26.87,0.21,0.04,0.4,0.23,1.97,19.34,42.1,8.8,1.4,23.84,1.4,0.21,0.23,0,0.04,93.44,0,0,EPIEDMNT,4.56,3.22,5.1358
BA-P-322-203-96,PINEY RUN,96,C,P,BA,GU,203,2,Y,4/4/1996,Y,7/2/1996,39.539997,76.776,621717,863097,2130805,Loch Raven Reservoir,18.6,10.2,7.41,7.56,191.5,180,495.3,1.5,4.62,9.24,none,13,14,16,11,10,15,14,70,90,60,16,18,1,3,50,FR,FR,64,1,10.53,34.75,0.395,12.86,6523,0.58,72.45,26.58,0.08,0,0.25,0.08,0.51,22.87,25.57,24.01,1.24,23.29,1.84,0.08,0.21,0,0,67.95,0,0,EPIEDMNT,3,3.89,3.54639
BA-P-331-315-95,GWYNNS FALLS,95,C,P,BA,PP,315,3,Y,4/3/1995,Y,9/11/1995,39.34455,76.728869,550478,876683,2130905,Gwynns Falls,16,8.2,7.67,7.33,264,262,1424.13,2,1.79,11.87,none,16,16,14,16,15,16,8,35,90,50,7,8,1,0,15,OF,HO,127,0.5,10.43,59.25,0.075,6.12,20974.82,35.1,33.45,30.87,0.27,0.2,0.1,3.95,31.14,6.84,17.88,8.73,2.21,23.7,4.29,0.27,0.67,0.2,0,59.95,0,0,EPIEDMNT,2.78,1.44,6
BA-P-333-303-96,BEETREE RUN,96,C,P,BA,GU,303,3,Y,4/11/1996,Y,6/26/1996,39.677,76.668,671726,893479,2130805,Loch Raven Reservoir,16,10.6,7.17,7.63,161.1,132,281.7,1.7,3.38,6.33,none,11,14,10,11,15,5,10,25,95,30,6,13,1,0,20,OF,GR,45,0.8,7.4,38,0.31,15.19,5871,3,56.67,39.99,0.17,0,0.17,0.34,2.66,17.59,29.19,9.88,2.06,35.45,1.99,0.17,0.49,0,0,40.74,0,0,EPIEDMNT,3.89,4.11,3.93333
BA-P-340-214-96,CARROLL BR,96,C,P,BA,GU,214,2,Y,4/16/1996,Y,7/9/1996,39.551,76.598,625632,913244,2130805,Loch Raven Reservoir,24,10.2,6.99,7.26,101.4,132,359,5.1,1.35,10.96,none,14,13,12,13,14,9,9,50,90,40,16,11,2,1,0,,PA,50,1.5,1.73,20.5,0.2,0.68,617,0,86.39,13.13,0.16,0,0.49,0,0,48.78,22.37,15.24,1.94,9.4,1.78,0.16,0,0,0,52.4,0,0,EPIEDMNT,3.44,3.89,3.31522
BA-P-341-212-96,PINEY RUN,96,C,P,BA,GU,212,2,Y,4/16/1996,Y,7/2/1996,39.563,76.798,629931,857025,2130805,Loch Raven Reservoir,21,10.4,7.35,7.74,197.7,242,576.6,3.6,3.73,9.13,none,10,12,12,11,15,9,15,65,90,50,10,16,2,1,3,OF,PA,60,1.2,5.53,33.25,0.265,8.59,4158,0.89,75.01,23.83,0.02,0,0.26,0.1,0.79,23.79,31.14,20.08,0.87,21.21,1.44,0.02,0.31,0,0,43.73,0,0,EPIEDMNT,3.44,3.89,3.77778
BA-P-346-321-95,JONES FALLS,95,C,P,BA,PP,321,3,Y,3/20/1995,Y,8/2/1995,39.391,76.660711,567463,895896,2130904,Jones Falls,22.6,10.2,8.11,8.34,329,382,1969.44,2,1.87,12.98,none,12,10,17,16,15,7,8,50,85,80,1,10,6,1,0,,PV,62,1,9.48,34.25,0.35,7.22,16257.89,14.13,30.66,53.37,0.23,1.44,0.18,1.12,13.01,9.79,12.93,7.93,2.79,41.31,8.76,0.23,0.51,1.37,0.07,63.33,0,0,EPIEDMNT,3.22,3.22,4.85542
BA-P-376-105-95,FALLS RUN,95,C,P,BA,PP,105,1,Y,4/10/1995,Y,6/12/1995,39.376119,76.833311,561906,847124,2130906,Patapsco River Lower North Branch,15.1,8,6.74,7.25,204,262,419.38,2,6.7,4.99,none,12,11,8,7,10,7,6,40,80,95,5,9,1,0,10,FR,HO,30,3.3,1.65,9,0.285,0.15,31.51,55.06,5.4,39.92,0,0,0,0,55.06,2.16,1.08,2.16,5.4,19.42,15.11,0,0,0,0,18.84,0,0,EPIEDMNT,,3.67,2.38462
BA-P-379-307-96,GUNPOWDER FALLS,96,C,P,BA,GU,307,3,Y,4/15/1996,Y,8/15/1996,39.686,76.774,674856,863617,2130806,Prettyboy Reservoir,17.2,9.8,8.35,7.62,133.2,138,437.4,1.2,2.96,5.52,none,19,17,17,16,18,17,19,30,95,75,10,17,2,0,50,FR,FR,92,1,10.68,67.75,0.29,35.97,20516,0.39,65.95,33.33,0.11,0,0.22,0.03,0.36,25.52,28.89,11.54,1.9,29.35,2.01,0.11,0.07,0,0,87.42,0,0,EPIEDMNT,3.89,3.44,3.37333
BA-P-379-315-96,GUNPOWDER FALLS,96,C,P,BA,GU,315,3,Y,4/15/1996,Y,8/15/1996,39.688,76.776,675564,863078,2130806,Prettyboy Reservoir,19.7,9.7,8.61,8.07,134.2,143,452.8,1.2,2.91,5.64,none,17,15,17,15,17,18,18,30,95,65,16,16,1,0,50,FR,FR,82,0.8,11.58,53.25,0.6325,37.8,20542,0.39,65.88,33.4,0.11,0,0.22,0.03,0.36,25.5,28.85,11.52,1.94,29.36,2.03,0.11,0.07,0,0,82.19,0,0,EPIEDMNT,3.89,3.44,3.73418
BA-P-403-106-96,OREGON BR,96,C,P,BA,GU,106,1,Y,4/4/1996,Y,6/25/1996,39.494,76.686,605049,888705,2130805,Loch Raven Reservoir,19.5,10.8,7.8,7.35,299.5,277,1722.2,3.1,2.41,9.17,none,16,11,16,13,16,6,4,60,65,80,6,6,4,1,10,FR,OF,82,2,4.85,41.25,0.355,5.92,1423,0,43.36,55.94,0,0,0.49,0,0,9.98,13.49,19.89,0.49,49.96,5.48,0,0,0,0,67.95,0,0,EPIEDMNT,2.11,3,2.57692
BA-P-409-102-96,RED RUN,96,C,P,BA,PP,102,1,Y,3/19/1996,Y,8/26/1996,39.445,76.831,587013,847740,2130905,Gwynns Falls,15.9,9.1,6.54,7.22,122.2,128,162.1,1.3,5.89,5.1,AGR,4,4,4,7,6,16,9,65,85,95,15,11,9,2,8,FR,CP,18,0.3,1,7.5,0.0375,0.03,77,3.9,84.42,10.39,0,0,0,0,3.9,12.99,45.45,25.97,0,9.09,1.3,0,0,0,0,5.15,0,0,EPIEDMNT,,2.56,5.4
BA-P-410-203-96,GWYNNS FALLS,96,C,P,BA,PP,203,2,Y,3/19/1996,Y,6/6/1996,39.441,76.782,585538,861501,2130905,Gwynns Falls,18.3,9.6,7.52,7.5,272.2,236,943.7,1.3,2.26,7.92,none,19,17,18,18,18,15,8,30,75,80,9,18,11,9,8,FR,RR,72,0.9,4.8,31,0.2075,3.76,3122,28.44,50.64,20.6,0.29,0,0.06,1.6,26.84,8.2,31.87,10.57,0.58,16.34,3.17,0.29,0.51,0,0,99.56,0,0,EPIEDMNT,3,1.44,3.67647
BA-P-415-119-95,COOPER BR,95,C,P,BA,PP,119,1,Y,3/27/1995,Y,7/3/1995,39.265789,76.792111,521744,858860,2130906,Patapsco River Lower North Branch,17.8,8.9,8.86,7.58,350,296,1890.36,2,0.26,39.6,none,17,16,15,15,14,15,16,10,60,86,5,6,1,0,35,FR,HO,115,4.6,2.7,18.5,0.16,0.58,521.77,34.36,8.08,57.9,0,0,0,1.11,33.26,3.26,3.78,1.04,3.52,37.1,17.28,0,0,0,0,67.95,0,0,EPIEDMNT,1,2.11,5.80612
BA-P-418-207-96,PRETTYBOY BR,96,C,P,BA,GU,207,2,Y,4/8/1996,Y,6/12/1996,39.613,76.746,648133,871479,2130806,Prettyboy Reservoir,19.2,9.8,7.17,7.3,194.5,186,351.7,1.7,6.81,9.2,none,10,9,8,7,12,5,3,70,90,30,6,8,1,0,0,,PA,39,0.8,1.78,23.5,0.2225,1.17,904,0,91.92,7.19,0.44,0,0.66,0,0,35.73,45.24,10.95,1.11,5.31,0.77,0.44,0,0,0,13.36,0,0,EPIEDMNT,3.44,3.22,5.37179
BA-P-419-317-96,DELAWARE RUN,96,C,P,BA,GU,317,3,Y,4/17/1996,Y,7/8/1996,39.5,76.769997,607148,864865,2130805,Loch Raven Reservoir,16.5,9.4,7.66,7.98,249.6,231,1612.3,1.1,2.28,9.89,none,10,9,16,13,16,10,10,60,100,65,16,14,4,2,0,,PA,60,1,5.45,30,0.465,12.39,7367,1.07,51.96,45.96,0.67,0,0.31,0.08,0.99,17.7,15.64,18.62,0.99,40.6,4.22,0.67,0.15,0,0,67.05,0,0,EPIEDMNT,3.22,3.89,3.22892
BA-P-427-107-96,LONG GREEN CR UT1,96,C,P,BA,GU,107,1,Y,4/2/1996,Y,6/25/1996,39.442,76.486,586248,945299,2130802,Lower Gunpowder Falls,19.8,10.3,6.88,7.02,221,203,398.5,2.8,4.85,23.96,none,12,14,14,13,11,7,10,45,75,85,11,15,0,0,45,FR,LN,63,10,3.35,22.75,0.0975,0.71,262,0,65.65,33.97,0,0,0,0,0,26.72,27.86,11.07,0,30.53,3.44,0,0,0,0,39.75,0,0,EPIEDMNT,,2.33,3.63265
BA-P-458-108-96,GUNPOWDER FALLS UT1,96,C,P,BA,GU,108,1,Y,4/22/1996,Y,6/13/1996,39.628,76.699,653646,884873,2130805,Loch Raven Reservoir,17.3,9.9,6.59,7,99.7,100,144.5,2,2.64,3.85,AGR,11,9,7,6,10,4,4,70,75,85,15,16,3,1,50,FR,FR,15,2.5,1.03,7.5,0.2133,0.11,130,0,62.31,38.46,0,0,0,0,0,20.77,30,11.54,6.15,30,2.31,0,0,0,0,19.48,0,0,EPIEDMNT,,3.89,2.79762
BA-P-464-117-95,WEST BR HERBERT RUN UT1,95,C,P,BA,PP,117,1,Y,3/27/1995,Y,6/22/1995,39.261539,76.710869,520260,881869,2130906,Patapsco River Lower North Branch,19.4,7.8,8.78,7.52,539,698,2010.77,2,0.86,45.82,none,13,16,13,12,13,9,5,15,35,75,3,3,1,2,0,,LN,62,2.1,2.18,20.5,0.0325,0.21,501.98,57.75,10.1,31.52,0.34,0,0,6.78,50.97,10.03,0,0.07,1.42,22.64,7.46,0.34,0,0,0,60.93,0,0,EPIEDMNT,1,1.89,6.36486
BA-P-478-314-96,GWYNNS FALLS,96,C,P,BA,PP,314,3,Y,3/11/1996,Y,9/26/1996,39.353,76.742,553599,872866,2130905,Gwynns Falls,13.9,7.7,7.76,7.78,536.1,284,1186.6,1.9,2.04,13.9,none,13,8,9,18,5,16,5,95,100,75,12,5,10,7,1,OF,LN,94,0.3,14.83,81.5,0.135,32.76,19380,31.8,35.7,31.87,0.29,0.21,0.11,3.82,27.98,7.18,19.18,9.34,2.35,24.41,4.38,0.29,0.73,0.21,0,47.8,0,0,EPIEDMNT,2.11,2.33,5
BA-P-478-325-95,GWYNNS FALLS,95,C,P,BA,PP,325,3,Y,3/31/1995,Y,8/9/1995,39.358289,76.743419,555473,872555,2130905,Gwynns Falls,20.9,9.1,7.75,8.02,259,234,1369.8,2,1.87,10.69,none,14,12,16,17,6,15,11,20,93,80,8,6,3,2,50,FR,PV,100,0.1,11.15,51,0.385,16.66,19299.69,31.76,35.84,31.77,0.29,0.21,0.11,3.79,27.97,7.2,19.24,9.4,2.36,24.33,4.35,0.29,0.73,0.21,0,53.42,0,0,EPIEDMNT,2.78,1.67,5.61702
BC-N-012-120-96,STONY RUN,96,C,N,BC,PP,120,1,Y,3/8/1996,Y,7/15/1996,39.322,76.628,542469,905254,2130904,Jones Falls,21.6,8.5,7.45,7.35,2599,560,1186.4,2.8,0.18,22.8,none,10,11,12,11,13,7,10,35,70,40,6,1,3,1,0,,PV,74,3.3,6,18.75,0.25,2.61,2869,74.94,4.74,19.87,0.1,0,0.38,16.9,58.03,3.24,0.87,0.63,4.5,9.48,5.89,0.1,0,0,0,53.76,0,0,EPIEDMNT,1,1,9.2
BC-N-014-216-95,MOORES RUN,95,C,N,BC,PP,216,2,Y,3/20/1995,Y,8/3/1995,39.317181,76.534689,540732,931653,2130901,Back River,25.8,4.4,7.36,7.27,550,490,2030.42,4,1.21,40.67,none,10,8,8,15,4,6,10,40,87,70,0,2,3,1,0,,PV,120,0.9,6.6,46.75,0.0375,0.18,2756.25,85.23,5.74,8.79,0,0,0.2,11.95,73.28,2.89,1.69,1.16,0.16,6.8,1.78,0,0.05,0,0,65.87,0,0,COASTAL,2.5,1.29,6.88
BC-N-014-217-96,MOORE'S RUN,96,C,N,BC,PP,217,2,Y,3/7/1996,Y,7/15/1996,39.333,76.537,546642,930949,2130901,Back River,22.2,7.8,6.96,7.46,177.7,395,592.5,8.8,0.8,7.38,none,17,18,13,14,15,16,10,15,40,55,2,2,0,1,0,,LN,57,2.6,5.33,18,0.17,1.1,1943,88.57,3.6,7.93,0,0,0,11.84,76.74,1.9,1.08,0.62,0.15,6.18,1.54,0,0.05,0,0,81.02,0,0,EPIEDMNT,1.67,1,
BC-N-014-224-95,MOORES RUN,95,C,N,BC,PP,224,2,Y,3/20/1995,Y,8/3/1995,39.317831,76.534731,540969,931640,2130901,Back River,28.9,9,7.42,7.92,527,548,1973.15,4,1.07,38.54,none,12,4,7,16,0,11,8,60,95,90,1,2,3,4,0,,PV,103,0.09,8.1,49.5,0.005,0.8,2756.85,85.28,5.73,8.76,0,0,0.2,11.95,73.33,2.89,1.69,1.15,0.16,6.76,1.79,0,0.05,0,0,61.55,0,0,COASTAL,3,1.86,7.98305
BC-N-015-202-96,HERRING RUN,96,C,N,BC,PP,202,2,Y,3/7/1996,Y,8/29/1996,39.331,76.573,545832,920825,2130901,Back River,23.7,7.6,7.5,7.06,412.4,236,947.1,3.2,1.68,19.38,none,15,14,8,6,16,6,16,45,98,40,6,2,0,0,0,,LN,37,1.5,14.1,29.5,0.35,23.45,8464,77.28,8.98,12.57,0.25,0,0.86,11.86,65.42,5.8,1.37,1.81,0.58,9.27,2.72,0.25,0,0,0,32.03,0,0,EPIEDMNT,1.22,1,8
BC-N-015-219-95,HERRING RUN,95,C,N,BC,PP,219,2,Y,3/20/1995,Y,8/9/1995,39.326281,76.567089,544002,922469,2130901,Back River,24.7,7.6,8.04,7.78,262,246,1198.85,5,1.52,18.16,none,15,15,18,13,19,5,6,5,60,40,3,6,0,1,0,,PV,85,1.2,15.6,57,0.4025,32.25,8820.26,76.49,9.72,12.65,0.24,0,0.86,11.85,64.64,6.42,1.36,1.95,0.6,9.34,2.71,0.24,0,0,0,90.97,0,0,EPIEDMNT,2.56,1.29,6.43158
BC-P-001-326-96,GWYNNS FALLS,96,C,P,BC,PP,326,3,Y,3/11/1996,Y,6/11/1996,39.311,76.692,538448,887032,2130905,Gwynns Falls,23.9,8.7,7.79,8.29,884.2,318,1193.3,2.1,0.3,17.31,none,18,19,20,13,19,10,18,30,80,50,6,5,0,0,0,,PV,90,1.9,7.63,56.25,0.6825,35.39,26594,41.49,28.41,29.53,0.24,0.24,0.11,5.43,36.06,6.24,14.97,7.2,2.08,22.7,4.22,0.24,0.53,0.15,0.08,86.01,0,0,EPIEDMNT,2.56,1.22,6.33333
BC-P-003-205-95,HERRING RUN,95,C,P,BC,PP,205,2,Y,3/20/1995,Y,8/2/1995,39.362481,76.5729,557180,920764,2130901,Back River,26.4,8.6,8.36,8.11,381,420,1272.49,3,2.64,27.16,none,14,13,8,11,14,5,16,5,50,55,0,5,0,0,0,,PV,42,1,4.2,20.5,0.22,0.44,2669.24,79.74,9.9,10.39,0.06,0,0,11.88,67.86,6.4,1.57,1.94,0.08,8.88,1.43,0.06,0,0,0,38.77,0,0,EPIEDMNT,1.89,1.22,6.76744
BC-P-003-228-96,HERRING RUN,96,C,P,BC,PP,228,2,Y,3/7/1996,Y,7/15/1996,39.359,76.573,555953,920702,2130901,Back River,22.9,6.6,7.48,7.34,1090.2,386,1450,7.4,1.35,21.53,none,11,16,15,13,15,2,11,10,40,35,3,1,3,0,0,,LN,58,2.3,8.08,21.5,0.2375,1.64,2758,80.02,9.9,10.01,0.07,0,0,11.68,68.35,6.42,1.63,1.85,0.07,8.52,1.41,0.07,0,0,0,48.31,0,0,EPIEDMNT,1.22,1,7
BC-P-004-107-96,CHINQUAPIN RUN,96,C,P,BC,PP,107,1,Y,3/7/1996,Y,7/2/1996,39.351,76.591,552862,915628,2130901,Back River,21.7,0.9,7.5,6.76,464.8,511,1152.1,2.5,2.42,19.41,none,3,2,1,12,0,5,5,0,10,50,0,0,0,0,0,,PV,60,2.2,1.95,12,0,0,1416,86.86,2.54,10.66,0,0,0,12.22,74.65,1.77,0.35,0.42,0.56,7.63,2.47,0,0,0,0,0.31,0,0,EPIEDMNT,1,1.44,9.78218
BC-P-005-306-96,DEAD RUN,96,C,P,BC,PP,306,3,Y,3/11/1996,Y,6/11/1996,39.302,76.699,534954,885306,2130905,Gwynns Falls,20.8,8.1,7.88,7.86,3283.2,904,2823.2,3.2,0.33,45.64,none,17,18,15,17,18,16,8,60,60,15,8,8,0,0,48,FR,PV,56,1.5,4.48,31.25,0.0925,2.21,4659,74.89,10.15,14.64,0,0.24,0.09,14.64,60.25,3.84,4.98,1.33,0.52,11.61,2.4,0,0.11,0,0.24,67.05,0,0,EPIEDMNT,1.67,2.33,5.5
BC-P-005-318-96,DEAD RUN,96,C,P,BC,PP,318,3,Y,3/11/1996,Y,6/10/1996,39.302,76.709,534939,882229,2130905,Gwynns Falls,23,8.7,7.91,8.1,3046.8,997,2905.6,3,0.34,44.93,none,18,18,16,13,18,13,14,70,85,65,4,8,1,1,0,,LN,51,2.2,7.88,23.25,0.475,8.34,4145,78.29,10.69,10.59,0,0.27,0.1,15.8,62.48,3.88,5.43,1.38,0.24,8.47,1.76,0,0.12,0,0.27,76.89,0,0,EPIEDMNT,1.67,1.44,7
CA-S-012-119-97,PARKER CR UT1,97,C,S,CA,WC,119,1,Y,4/30/1997,Y,7/8/1997,38.544436,76.553614,259278,927674,2131005,West Chesapeake Bay,17.4,9.1,7.28,7.43,136.2,155,897.2,2.8,0.17,8.19,none,12,11,10,7,10,17,17,100,95,85,18,19,11,3,50,FR,FR,15,0.6,1.7,7.5,0.2275,0.24,253.91,1.74,14.6,83.08,0,0,0,0,1.74,1.21,12.6,0.8,12.46,48.11,20.5,0,2.01,0,0,33.97,0,0,COASTAL,,1.57,5.54206
CA-S-014-134-97,FOWLER'S MILL BR,97,C,S,CA,PX,134,1,Y,3/17/1997,Y,6/16/1997,38.695,76.614997,314060,909821,2131101,Patuxent River (Lower),17.8,13.3,6.71,7.16,166.3,186,312.9,1.9,0.6,22.13,none,4,3,7,2,7,5,4,52,62,82,10,16,3,0,50,FR,FR,13,1.8,1.18,5.75,0.1275,0.11,203.9,29.2,24.2,46.56,0.17,0,0.5,0.67,28.53,2.67,17.52,4.01,4.84,29.53,11.85,0.17,0.33,0,0,11.05,0,0,COASTAL,,1.29,6.10101
CA-S-019-111-97,FISHING CR UT1,97,C,S,CA,WC,111,1,Y,3/24/1997,Y,6/25/1997,38.694,76.592,313733,916368,2131005,West Chesapeake Bay,22.5,6.8,6.93,7.01,149.8,165,396.2,3,0.27,21.54,none,9,11,2,5,6,10,16,100,70,90,16,16,11,5,50,FR,FR,6,0.3,0.53,3.5,0.01,0.06,143.35,13.53,10.68,74.53,0,0,0.47,0.71,12.81,0.71,5.94,4.03,0.71,65.04,3.56,0,5.22,0,0,8.62,0,0,COASTAL,,1.57,3.99038
CA-S-053-212-97,PARKER CR,97,C,S,CA,WC,212,2,Y,4/2/1997,Y,7/8/1997,38.53,76.554,254015,927660,2131005,West Chesapeake Bay,22,8,7.23,7.01,141,172,680.7,3.2,0.34,10.2,none,13,11,6,16,0,17,18,100,95,80,19,19,8,4,50,FR,FR,110,0.4,5.48,76,0,0,4128.66,10.72,15.23,73.82,0.12,0,0.06,1.2,9.52,1.92,9.7,3.61,10.98,40.17,17.45,0.12,5.22,0,0,73.95,0,0,COASTAL,2.5,2.43,5.56098
CA-S-074-218-97,PARKER CR,97,C,S,CA,WC,218,2,Y,4/30/1997,Y,7/1/1997,38.524186,76.566433,251886,924042,2131005,West Chesapeake Bay,20.1,7.5,7.01,7.09,178.7,200,624.9,3.6,0.18,8.7,none,16,13,5,10,15,16,17,100,95,70,16,16,12,11,50,FR,FR,30,0.4,1.83,18,0.19,0.42,1839.88,16.9,13.74,69.48,0,0,0,2.39,14.52,1,9.41,3.33,7.47,40.3,17.44,0,4.27,0,0,39.08,0,0,COASTAL,2.75,1.57,4.43636
CA-S-078-308-97,FISHING CR,97,C,S,CA,WC,308,3,Y,3/24/1997,Y,6/30/1997,38.641,76.572,294515,922241,2131005,West Chesapeake Bay,18.8,8.2,7.23,7.29,152.8,179,477.7,2.8,0.39,19.39,none,15,12,10,14,16,3,5,100,75,80,15,14,9,5,50,FR,FR,84,0.4,2.45,32.75,0.06,0.77,2512.17,5.42,27.55,66.43,0.09,0.11,0.45,0.31,5.11,6.09,13.69,7.76,4.35,50.45,7.11,0.09,4.52,0,0.11,71.55,0,0,COASTAL,3.25,3,5.64615
CA-S-086-209-97,PLUM POINT CR,97,C,S,CA,WC,209,2,Y,4/11/1997,Y,6/30/1997,38.606,76.524,281847,935980,2131005,West Chesapeake Bay,19.1,7.4,7.36,7.12,169.5,215,760.3,3.2,0,16.21,none,15,12,10,10,12,3,16,100,65,70,15,16,9,5,50,FR,FR,23,0.4,1.68,16,0.0725,0.27,2549.22,5.27,19.53,74.93,0.15,0,0.07,0.11,5.17,4,8.86,6.66,4.58,54.98,10.13,0.15,5.25,0,0,47.99,0,0,COASTAL,2.75,3.29,4.45238
CA-S-089-201-97,CHEW CR,97,C,S,CA,PX,201,2,Y,3/17/1997,Y,6/16/1997,38.664997,76.634,303059,904475,2131101,Patuxent River (Lower),14.7,10.7,7.17,7.34,187.9,206,577,2.1,0.71,23.11,none,8,5,9,16,4,13,14,100,99,75,15,17,10,4,50,FR,FR,99,0.2,3.55,43,0.0625,1.26,1991.14,22.56,41.28,35.71,0.03,0,0.34,1.15,21.41,9.77,22.44,9.07,1.62,27.84,4.78,0.03,1.47,0,0,64.37,0,0,COASTAL,2.75,3,5.90123
CA-S-119-210-97,FISHING CR,97,C,S,CA,WC,210,2,Y,3/24/1997,Y,6/26/1997,38.639,76.554,293741,927412,2131005,West Chesapeake Bay,22.8,7.5,6.82,7.25,114.9,130,323.7,2.5,0.23,16.87,none,11,12,4,7,8,6,3,98,50,80,18,18,8,0,50,FR,FR,16,0.9,1.03,10.5,0.0225,0.03,637.92,0.05,9.23,90.3,0,0,0.11,0,0.05,1.55,6.24,1.44,13.28,59.63,17.07,0,0.32,0,0,18.88,0,0,COASTAL,1.5,2.43,5.76119
CA-S-119-211-97,FISHING CR,97,C,S,CA,WC,211,2,Y,3/24/1997,Y,6/26/1997,38.638,76.555,293324,927158,2131005,West Chesapeake Bay,21,7.7,6.9,7.33,116.2,135,323.4,2.2,0.23,16.89,none,11,11,4,8,10,8,10,98,70,80,18,12,5,1,50,FR,FR,28,0.9,1.4,5,0.0875,0.06,682,0.05,9.08,90.55,0,0,0.1,0,0.05,1.45,6.29,1.35,13.22,59.52,17.11,0,0.7,0,0,17.57,0,0,COASTAL,1.5,2.71,4.84444
CA-S-123-136-97,BUZZARD ISLAND CR,97,C,S,CA,PX,136,1,Y,3/17/1997,Y,6/12/1997,38.507,76.628,245554,906433,2131101,Patuxent River (Lower),20.4,6.5,6.53,6.46,155.3,184,300.7,3,0.24,8.28,none,4,6,7,7,8,8,12,32,88,71,5,14,0,0,0,,GR,11,1.5,0.78,4.5,0.085,0.05,75.55,11.26,9.9,78.36,0,0,0,0,11.26,0.9,5.85,3.15,25.67,23.86,28.83,0,0,0,0,19.05,0,0,COASTAL,,1.29,5.09735
CA-S-171-114-97,PLUM POINT CR UT1,97,C,S,CA,WC,114,1,Y,3/31/1997,Y,6/25/1997,38.619997,76.528,286732,934904,2131005,West Chesapeake Bay,19.8,7.7,7.02,7.34,249.7,252,873.6,3.7,0.42,19.52,none,16,11,5,6,7,16,11,60,75,75,8,10,11,2,50,FR,FR,16,1.1,0.75,2.75,0.0575,0.09,187.82,0.18,5.62,94.74,0,0,0,0,0.18,1.27,4.35,0,4.89,76.26,13.59,0,0,0,0,28.31,0,0,COASTAL,,1,3.98936
CA-S-187-133-97,PATUXENT R UT1,97,C,S,CA,PX,133,1,Y,3/18/1997,Y,8/1/1997,38.594997,76.657,277515,898171,2131101,Patuxent River (Lower),17.7,8.9,6.99,7.38,141.6,236,432.9,3.2,0.58,19.02,none,6,5,5,7,7,5,9,100,40,95,8,17,5,1,50,FR,FR,43,0.3,1.55,10.25,0.055,0.07,1894.6,7.79,22.84,68.15,0.2,0,0.84,1.31,6.48,4.56,11.42,6.86,7.08,42.81,11.73,0.2,6.54,0,0,15.73,0,0,COASTAL,2.5,2.43,4.2973
CA-S-197-302-97,LYONS CR,97,C,S,AA,PX,302,3,Y,3/6/1997,Y,7/28/1997,38.765,76.659997,339425,896924,2131102,Patuxent River (Middle),22.3,7.9,6.64,7.01,176.3,206,244.9,2.3,1.21,26.06,none,5,5,11,8,11,4,7,100,65,90,5,7,6,1,0,,PV,59,0.05,3.73,24.75,0.1525,1.47,9590.68,6.58,58.07,34.91,0.32,0,0.17,0.51,6.07,15.33,28.43,14.31,0.5,25.4,2.99,0.32,6.02,0,0,19.91,0,0,COASTAL,4.75,3.86,5.15625
CA-S-198-107-97,COCKTOWN CR UT1,97,C,S,CA,PX,107,1,Y,3/18/1997,Y,6/12/1997,38.634,76.623,291731,907792,2131101,Patuxent River (Lower),18.4,8.4,6.98,7.25,174.6,188,535.2,2.7,0.5,21.58,none,5,6,6,7,10,10,7,41,81,86,14,18,3,3,50,FR,FR,22,0.5,1.15,6,0.1375,0.13,375.73,18.02,15.58,66.11,0.09,0,0,0.36,17.66,2.36,9.33,3.89,3.17,51.89,10.41,0.09,0.63,0,0,23.07,0,0,COASTAL,2.5,3.29,4.01316
CA-S-200-213-97,FISHING CR UT1,97,C,S,CA,WC,213,2,Y,4/2/1997,Y,6/25/1997,38.688,76.583,311342,919156,2131005,West Chesapeake Bay,21.6,7.8,6.88,7.33,126.7,140,442.4,3.1,0.24,20.56,none,15,13,5,9,8,8,6,100,60,70,14,13,11,1,40,FR,LN,25,0.6,1.23,6.5,0.11,0.04,568.74,5.08,10.53,84.23,0,0,0.18,0.18,4.91,1.14,6.1,3.29,2.27,68.8,6.22,0,6.94,0,0,29.22,0,0,COASTAL,1.5,2.14,4.3871
CA-S-210-230-97,BATTLE CR,97,C,S,CA,PX,230,2,Y,3/7/1997,N,7/9/1997,38.508,76.588,246017,917930,2131101,Patuxent River (Lower),,,6.8,,99.5,,324.8,2.5,0.67,8.46,none,,,,,,,,,,,,,,,,,,,,,,,,1610.51,13.61,29.2,56.58,0.11,0,0.51,0.82,12.78,5.87,16.1,7.23,15.42,19.48,16.67,0.11,5.01,0,0,,,,COASTAL,,3.29,6.62832
CE-N-021-302-96,NORTHEAST R,96,E,N,CE,EL,302,3,Y,3/19/1996,Y,8/20/1996,39.604997,75.939997,647110,1098741,2130608,Northeast River,22.3,9.9,7.51,8.39,232,174,570.6,3,2.38,22.91,none,18,17,17,17,16,12,13,25,90,40,6,6,2,2,40,LN,HO,127,0.8,23.48,61.5,0.275,24.85,27961,2.82,63.78,31.98,0.35,0.54,0.53,0.65,2.17,27.22,28.92,7.64,1.88,26.18,2.36,0.35,1.55,0.53,0,96.14,0,0,EPIEDMNT,4.33,3.29,5.2
CE-N-029-206-96,PRINCIPIO CR,96,E,N,CE,EL,206,2,Y,3/19/1996,Y,8/6/1996,39.589,76.03,640713,1073451,2130609,Furnace Bay,18.8,8.7,7.19,7.51,165.7,130,348.2,2.4,2.23,13.08,none,18,16,15,11,19,16,17,30,80,80,16,16,1,1,5,FR,PA,73,2,10.5,37,0.5,9.02,10248,0.55,50.44,43.61,0.2,4.35,0.87,0.23,0.31,19.35,24.11,6.98,1.99,37.75,3.17,0.2,0.69,4.35,0,90.32,0,0,EPIEDMNT,4.11,3.29,4.24242
CE-N-033-301-96,BIG ELK CR,96,E,N,CE,EL,301,3,Y,3/19/1996,Y,9/25/1996,39.623,75.829,654025,1129933,2130606,Big Elk Creek,13.8,10.2,8.02,7.59,183,128,428.9,2.6,3.2,17.53,none,16,17,17,17,18,16,14,20,95,60,15,15,1,2,50,FR,FR,81,1,21.75,52.25,0.3875,69.11,35971,2.9,64.79,31.74,0.22,0.12,0.23,0.52,2.38,29.29,25.9,9.59,2.14,26.49,2.82,0.22,0.29,0.12,0,95.42,0,0,COASTAL,4.75,3.86,5.72464
CE-N-040-119-96,LABBIDE MILL CR,96,E,N,CE,EL,119,1,Y,3/28/1996,Y,8/16/1996,39.488,75.797,604803,1139438,2130602,Bohemia River,16.7,8.6,6.62,6.71,189.6,154,334.7,0.9,7.64,11.33,none,13,5,10,11,0,16,14,99,95,25,10,16,2,0,32,FR,PA,102,0.1,2.5,65.75,0.0325,0.92,530,0,91.13,8.68,0,0,0,0,0,3.96,85.47,1.7,0,7.92,0.75,0,0,0,0,66.61,0,0,COASTAL,2.75,1.29,6.13333
CE-P-003-312-97,STONE RUN,97,E,P,CE,SQ,312,3,Y,3/5/1997,Y,6/23/1997,39.706,76.067,683499,1062630,2120203,Octoraro Creek,25.7,6.5,7.36,6.61,195.3,210,913.4,5.4,2.09,11.65,none,14,12,13,18,13,15,8,45,88,90,9,8,3,3,50,FR,FR,72,1.8,12.03,49.25,0.0275,1.1,2868.35,0.98,67.08,30.03,1.25,0,0.68,0.09,0.89,25.91,31.51,9.67,2.05,24.8,2.84,1.25,0.34,0,0,68.39,0,0,EPIEDMNT,4.11,3.89,4.89474
CE-P-004-102-96,STONY RUN,96,E,P,CE,EL,102,1,Y,3/14/1996,Y,7/23/1996,39.626,75.973,654567,1089335,2130608,Northeast River,19.6,9,6.86,7.21,17,105,217.4,2.8,0.61,9.65,none,15,17,14,13,15,7,13,25,80,85,2,11,2,0,45,FR,PV,52,1,4.88,30.75,0.23,2.12,1455,5.77,51.62,41.86,0.14,0.07,0.34,1.31,4.47,16.56,27.84,7.22,3.3,33.81,4.33,0.14,0.41,0.07,0,62.86,0,0,EPIEDMNT,4.33,2.33,5.58511
CE-P-009-303-96,BIG ELK CR,96,E,P,CE,EL,303,3,Y,3/21/1996,Y,9/25/1996,39.692,75.826,678959,1130316,2130606,Big Elk Creek,16,9.7,7.26,6.86,154.8,136,403.4,3.9,3.08,13.74,none,13,13,14,15,15,12,10,50,97,70,16,16,4,7,25,FR,DI,68,0.8,23.98,49.5,0.215,50.58,29559,2.14,68.64,28.76,0.2,0,0.23,0.31,1.83,30.94,27.26,10.44,2.13,23.7,2.64,0.2,0.29,0,0,94.04,0,0,EPIEDMNT,4.11,2.56,5.26154
CE-P-009-305-96,BIG ELK CR,96,E,P,CE,EL,305,3,Y,3/21/1996,Y,9/12/1996,39.67,75.827,670865,1130097,2130606,Big Elk Creek,20.2,9.5,7.06,7.48,148,165,396.5,4.7,2.5,14.49,none,15,16,16,15,16,15,13,35,95,50,10,15,1,4,50,FR,FR,62,0.8,17.45,49,0.33,42.64,30650,2.08,67.84,29.65,0.2,0,0.23,0.3,1.78,30.98,26.54,10.33,2.2,24.43,2.74,0.2,0.28,0,0,91.76,0,0,EPIEDMNT,4.33,3.67,5.20732
CE-P-012-210-96,PRINCIPIO CR,96,E,P,CE,EL,210,2,Y,3/14/1996,Y,8/6/1996,39.63,76.044,655783,1069344,2130609,Furnace Bay,21.7,10.5,7.96,8.06,183.8,170,420.5,2.5,4.03,15.36,none,16,14,17,18,14,14,12,60,75,85,15,17,2,1,15,FR,OF,94,0.5,7.15,41.25,0.15,3.39,5068,0.1,80.17,19.16,0.24,0,0.3,0.04,0.06,32.48,37.63,10.06,1.82,14.6,1.87,0.24,0.87,0,0,74.63,0,0,EPIEDMNT,4.78,2.56,5.85714
CE-P-012-212-96,PRINCIPIO CR,96,E,P,CE,EL,212,2,Y,3/14/1996,Y,7/29/1996,39.634,76.04,657358,1070330,2130609,Furnace Bay,19.5,9.7,7.77,7.58,181.4,156,408.5,2.9,4.26,15.21,none,17,6,16,15,14,14,16,40,70,50,10,16,0,1,5,FR,PA,95,1.8,7,28.75,0.2925,5.58,4919,0.1,80.28,19.09,0.24,0,0.3,0.04,0.06,33.18,37,10.1,1.87,14.43,1.91,0.24,0.87,0,0,78.31,0,0,EPIEDMNT,4.78,2.56,4.92045
CE-P-019-210-97,BASIN RUN,97,E,P,CE,SQ,210,2,Y,3/4/1997,Y,6/10/1997,39.659997,76.144997,666537,1040814,2120203,Octoraro Creek,19.2,9.3,7.49,7.11,182.8,186,573.2,4.4,2.44,16.87,none,18,14,17,15,18,14,15,35,85,75,3,12,2,1,10,FR,LN,63,3.5,9.83,41.25,0.36,8.98,7179.46,0.68,59.09,39.66,0.15,0,0.43,0.09,0.59,26.05,23.24,9.8,3.14,30.6,4.42,0.15,1.5,0,0,87.2,0,0,EPIEDMNT,3.67,3,2.87692
CE-P-020-118-96,WEST BR LAUREL RUN,96,E,P,CE,EL,118,1,Y,3/21/1996,Y,8/8/1996,39.629,75.889,655865,1112861,2130605,Little Elk Creek,19.8,7.1,6.43,6.65,159.1,165,138.9,4.1,0.57,14.3,AD,9,5,7,14,6,5,6,75,90,70,6,6,4,5,0,,FR,57,0.5,3.7,24,0.01,0.09,947,5.49,32.42,61.46,0,0,0.42,0.63,4.86,9.08,18.37,4.96,4.12,49.74,7.6,0,0,0,0,23.99,0,0,EPIEDMNT,2.33,2.56,4.90361
CE-P-022-301-97,CONOWINGO CR,97,E,P,CE,SQ,301,3,Y,3/5/1997,Y,7/1/1997,39.693,76.192,678215,1027494,2120204,Conowingo Dam Susquehanna River,21.9,10,7.68,7.11,229.6,220,736,4,6.78,15.09,none,18,17,16,16,17,18,17,6,97,49,15,15,1,0,50,FR,FR,68,3,16.85,50.75,0.3275,21.24,28011.85,0.32,79.12,20.11,0.3,0,0.15,0.11,0.21,35.32,34.42,9.37,2.02,15.84,1.76,0.3,0.5,0,0,85.61,0,0,EPIEDMNT,3.22,3,5.25926
CE-P-022-316-97,CONOWINGO CR,97,E,P,CE,SQ,316,3,Y,3/5/1997,Y,6/25/1997,39.704997,76.193,682661,1027180,2120204,Conowingo Dam Susquehanna River,24.1,8.5,7.57,7.02,226.2,223,774.2,4,6.95,14.94,none,19,9,18,18,19,16,15,15,85,25,15,16,1,0,50,FR,FR,65,2.5,12.4,49.75,0.2575,21.12,27349.7,0.32,80.75,18.49,0.29,0,0.15,0.11,0.21,36.07,35.13,9.55,1.89,14.5,1.58,0.29,0.51,0,0,91.12,0,0,EPIEDMNT,4.56,2.56,5.13043
CE-P-022-319-97,CONOWINGO CR,97,E,P,CE,SQ,319,3,Y,3/11/1997,Y,6/25/1997,39.704997,76.192,682497,1027363,2120204,Conowingo Dam Susquehanna River,24.1,8.5,7.97,7.02,214.2,223,628.3,2,8.27,13.96,none,17,7,15,17,5,16,12,70,98,25,15,16,1,1,50,FR,FR,66,2,16.43,47.5,0.2625,21.12,27359.14,0.32,80.72,18.51,0.29,0,0.15,0.11,0.21,36.06,35.12,9.55,1.89,14.52,1.58,0.29,0.51,0,0,42.23,0,0,EPIEDMNT,4.11,3.44,5.10204
CE-P-023-201-97,BASIN RUN,97,E,P,CE,SQ,201,2,Y,3/4/1997,Y,6/2/1997,39.654,76.088,664461,1056716,2120203,Octoraro Creek,15.3,9.6,7.04,6.94,190.3,179,540.1,4.5,2.28,16.75,none,14,15,17,16,15,4,4,50,99,50,9,16,2,0,0,,PA,80,1.5,4.05,36.25,0.395,9.92,2528.45,1.2,70.73,27.48,0.16,0,0.5,0.08,1.12,31.73,28.62,10.38,2.66,20.12,3.4,0.16,1.29,0,0,66.14,0,0,EPIEDMNT,4.33,3.89,3.24812
CE-P-038-205-96,NORTHEAST CR,96,E,P,CE,EL,205,2,Y,3/19/1996,Y,8/5/1996,39.676,75.993,672617,1083508,2130608,Northeast River,21.1,9.2,7.17,7.29,187.2,175,753.8,3.2,3.47,10.84,none,16,9,18,16,13,15,5,65,100,85,16,16,8,1,0,,PA,80,0.5,7.25,56,0.1675,11,10646,0.68,76.21,21.77,0.6,0,0.74,0.12,0.55,34.81,31.27,10.13,1.41,16.61,1.61,0.6,2.15,0,0,72.64,0,0,EPIEDMNT,3.89,2.78,5.91011
CE-P-038-209-96,NORTHEAST CR,96,E,P,CE,EL,209,2,Y,3/19/1996,Y,8/5/1996,39.669,75.991,670155,1084062,2130608,Northeast River,18.9,8.4,7.16,7.07,188,150,693.6,3,3.26,11.14,none,14,7,17,15,14,5,13,60,75,65,16,16,5,0,42,FR,LN,66,0.5,8.7,48,0.3175,13.62,11479,0.64,76.29,21.8,0.57,0,0.72,0.12,0.51,34.17,32.31,9.81,1.37,16.64,1.59,0.57,2.2,0,0,60.44,0,0,EPIEDMNT,3.67,2.11,6.38095
CE-P-046-207-96,NORTHEAST CR,96,E,P,CE,EL,207,2,Y,3/14/1996,Y,8/12/1996,39.63,75.947,656027,1096727,2130608,Northeast River,19.8,9.2,7.3,7.47,216.1,170,646.1,4.5,3.07,12.46,none,18,18,16,15,19,16,17,35,95,60,11,16,2,0,50,FR,FR,71,1.2,9.15,55.75,0.2775,11.74,15113,2.04,72.15,24.68,0.48,0,0.68,0.4,1.64,32.25,31.23,8.67,1.4,18.97,1.76,0.48,2.55,0,0,84.73,0,0,EPIEDMNT,3.67,2.11,5.83607
CE-P-046-214-96,NORTHEAST CR,96,E,P,CE,EL,214,2,Y,3/21/1996,Y,8/12/1996,39.627,75.946,655044,1096778,2130608,Northeast River,19.5,8.9,7.23,7.75,183.9,165,589.4,6.5,2.45,13.51,none,18,10,17,16,19,16,17,35,98,75,5,16,0,2,40,FR,PK,105,1.5,10.73,45.25,0.285,8.9,15201,2.03,72.03,24.81,0.47,0,0.68,0.4,1.62,32.1,31.31,8.62,1.4,19.1,1.78,0.47,2.53,0,0,92.92,0,0,EPIEDMNT,3.44,3,6.27536
CE-P-051-108-97,SUSQUEHANNA R UT1,97,E,P,CE,SQ,108,1,Y,3/4/1997,Y,7/9/1997,39.638,76.127,658377,1045752,2120201,Lower Susquehanna River,16.2,10.1,6.76,6.78,125.5,132,361.7,7.3,2.28,12.45,none,15,13,6,13,8,6,5,20,90,80,3,7,0,0,28,LN,PV,21,2,2.15,8.25,0.0775,0.13,181.22,0,63.46,35.86,0,0,0,0,0,44.5,15.96,3,4.32,26.66,4.88,0,0,0,0,19.48,0,0,EPIEDMNT,,2.78,4.51969
CE-P-056-307-97,STONE RUN,97,E,P,CE,SQ,307,3,Y,3/4/1997,Y,6/10/1997,39.704,76.103,682552,1052380,2120203,Octoraro Creek,15.1,10.1,7.6,6.61,240.1,226,890,1.1,3.95,6.94,none,18,15,18,19,15,15,10,40,90,75,4,14,5,3,0,,PV,140,1,8.53,34.25,0.2425,5.03,6012.17,2.13,67.32,29.15,0.71,0,0.74,0.54,1.59,24.73,32.64,9.94,2.24,23.89,2.64,0.71,0.38,0,0,91.91,0,0,EPIEDMNT,4.11,2.78,5.3125
CE-P-066-117-97,STONE RUN UT1,97,E,P,CE,SQ,117,1,Y,3/4/1997,Y,6/10/1997,39.701,76.052,681481,1066825,2120203,Octoraro Creek,23.7,5.4,7.32,6.88,193.7,180,917.6,9.3,2.4,12.33,none,12,10,11,11,11,15,14,60,85,80,2,14,0,5,0,,PV,50,1.8,2.73,23.75,0.0875,0.17,593.88,0.06,85.71,13.41,0.06,0,0.92,0.06,0,45.03,31.97,8.71,1.55,9.57,1.83,0.06,0.46,0,0,69.7,0,0,EPIEDMNT,3,3.67,5.20455
CE-P-071-305-97,CONOWINGO CR,97,E,P,CE,SQ,305,3,Y,3/5/1997,Y,7/1/1997,39.687,76.193,676045,1027139,2120204,Conowingo Dam Susquehanna River,21.1,8.8,7.5,6.61,223,226,793.4,5.1,6.58,14.83,none,16,16,18,15,17,15,16,15,62,37,8,14,3,0,50,FR,FR,96,4.5,23.03,63,0.3775,21.46,28627.73,0.31,78.46,20.79,0.29,0,0.15,0.11,0.2,34.69,34.31,9.46,2,16.55,1.75,0.29,0.49,0,0,83.64,0,0,EPIEDMNT,4.33,3,4.18
CE-P-078-109-97,ROCK RUN,97,E,P,CE,SQ,109,1,Y,3/4/1997,Y,6/3/1997,39.627,76.118,654551,1048499,2120201,Lower Susquehanna River,13.1,9.9,6.97,6.8,116.9,119,329.6,4,1.96,12.58,none,18,15,10,15,11,17,16,50,85,90,12,16,2,1,0,,DI,42,3.5,4.88,15.5,0.2825,0.95,487.56,0,63.5,35.87,0.14,0,0.14,0,0,32.03,20.31,11.17,1.75,30.85,3.28,0.14,0,0,0,54.44,0,0,EPIEDMNT,3.44,4.11,3.5625
CE-P-081-106-96,LITTLE ELK CR,96,E,P,CE,EL,106,1,Y,3/21/1996,Y,8/14/1996,39.678,75.873,673766,1117312,2130605,Little Elk Creek,18.9,9.8,7.25,7.26,178.1,147,631.8,4.5,2.88,14.1,none,17,16,16,15,17,15,16,25,75,60,6,13,1,0,50,FR,FR,65,2,10,49.75,0.7225,39.98,13840,3.53,68.82,27.04,0.34,0,0.23,0.43,3.09,30.98,27.51,10.32,2.5,21.86,2.33,0.34,0.36,0,0,79.33,0,0,EPIEDMNT,3.44,3.44,5.775
CE-P-081-114-96,LITTLE ELK CR,96,E,P,CE,EL,114,1,Y,3/21/1996,Y,8/20/1996,39.639,75.868,659564,1118760,2130605,Little Elk Creek,20.9,9.6,7.38,7.87,179.6,182,530.7,4.8,2.42,15.45,none,17,19,16,10,16,17,17,25,95,75,10,13,0,1,18,FR,TG,50,1.5,14.2,35.75,0.3225,25.11,17872,4.24,62.94,32.21,0.27,0.01,0.32,0.53,3.71,27.93,25.36,9.66,2.5,26.84,2.58,0.27,0.3,0,0.01,83.07,0,0,EPIEDMNT,4.33,1.89,6.21212
CE-P-085-109-96,GRANNIES BR,96,E,P,CE,EL,109,1,Y,3/20/1996,Y,7/23/1996,39.698,75.854,681038,1122629,2130606,Big Elk Creek,16.2,10.2,6.9,7.07,216.3,144,616.6,7.6,0.76,11.18,none,16,12,13,14,11,4,12,80,50,65,10,15,8,4,50,FR,FR,56,1.5,2.08,19.25,0.2625,0.26,217,1.38,56.22,41.94,0,0,0,0.92,0.46,29.95,20.28,5.99,1.84,37.79,2.3,0,0,0,0,73.05,0,0,EPIEDMNT,,3.44,4.6988
CE-P-999-105-96,WEST BR,96,E,P,CE,EL,105,1,Y,3/20/1996,Y,7/23/1996,39.664997,75.811,669175,1134787,2130607,Christina River,18.5,9.3,6.45,6.86,100.4,135,185.4,6.7,0.89,15.65,AD,13,6,13,15,7,7,9,65,80,85,7,12,5,6,0,,SL,102,0.5,3.5,48.25,0.03,0.82,886,2.26,56.66,39.95,0.11,0,0.79,0.11,2.14,31.6,21.22,3.84,2.14,33.63,4.18,0.11,0,0,0,71.82,0,0,EPIEDMNT,3,2.56,6.875
CH-S-002-207-95,HOGHOLE RUN,95,C,S,CH,LP,207,2,Y,3/2/1995,Y,6/27/1995,38.511081,77.029111,246820,791668,2140109,Port Tobacco River,21.1,7.4,6.62,6.32,63.8,68,75.56,3,0.2,10.51,AD,15,16,16,15,16,11,7,15,80,75,0,6,2,1,0,,FR,92,1.3,3.7,41,0.25,1.41,2287.77,3.72,12.61,83.58,0.07,0,0.04,0.16,3.55,2.2,6.42,3.99,8.58,56.65,16.31,0.07,2.04,0,0,90.7,0,0,COASTAL,4.5,3.29,4.96269
CH-S-012-114-95,ZEKIAH SWAMP RUN UT1,95,C,S,CH,LP,114,1,Y,3/10/1995,Y,5/26/1995,38.499361,76.903481,242565,827623,2140108,Zekiah Swamp,17.7,8.4,6.2,6.61,44.7,50,77.03,3,0.34,14.82,AD,11,11,7,9,11,12,10,15,70,85,19,19,5,2,50,FR,FR,30,1.1,1.5,8.25,0.1875,0.27,321.7,0,4.54,95.19,0,0,0,0,0,2.01,0.42,2.11,6.98,70.23,17.98,0,0,0,0,55.4,0,0,COASTAL,3.75,4.43,4.11475
CH-S-016-225-95,CLARK RUN,95,C,S,CH,LP,225,2,Y,3/10/1995,Y,6/28/1995,38.469811,76.956531,231793,812447,2140108,Zekiah Swamp,20,7.7,6.27,6.36,94.3,91,98.23,6,0.3,8.87,AD,11,7,13,12,15,9,6,65,100,90,8,10,3,6,15,FR,CP,58,1.1,4.3,35,0.21,4.03,7387.99,9.98,19.09,60.29,0.03,10.16,0.46,1.18,8.81,6.23,9.1,3.77,5.12,36.68,11.93,0.03,6.56,1.83,8.34,61.55,0,0,COASTAL,3.5,4.43,4.2
CH-S-020-322-95,ZEKIAH SWAMP RUN,95,C,S,CH,LP,322,3,Y,3/14/1995,Y,8/14/1995,38.590561,76.842381,275802,845054,2140108,Zekiah Swamp,22.4,6.6,6.73,6.43,123.3,135,193.55,6,0.49,13.23,AD,12,8,8,15,2,5,8,40,20,98,20,20,14,4,50,FR,FR,62,1,7.35,24.75,0.085,0.43,12572.79,4.25,22.25,69.49,0.31,3.26,0.43,0.27,3.98,4.24,15.61,2.4,12.41,32.25,16.75,0.31,8.07,0,3.26,77.39,0,0,COASTAL,4.25,2.71,4.94737
CH-S-033-314-95,MATTAWOMAN CR,95,C,S,CH,LP,314,3,Y,3/7/1995,Y,6/2/1995,38.58225,77.097661,272751,772083,2140111,Mattawoman Creek,19.4,7.1,6.6,6.52,125.2,114,107.92,4,0.24,12.84,AD,15,14,17,15,16,10,7,40,75,80,16,7,7,3,10,FR,RR,95,1.2,9.48,59.75,0.095,8.28,40507.05,9.53,17.74,69.63,0.35,2.45,0.32,1.27,8.26,4.7,9.73,3.3,6.95,39.28,11.98,0.35,11.43,0,2.45,90.03,0,0,COASTAL,3.5,2.71,6.72034
CH-S-036-213-95,ZEKIAH SWAMP RUN,95,C,S,CH,LP,213,2,Y,3/6/1995,N,,38.456411,76.938481,226914,817617,2140108,Zekiah Swamp,,,6.64,,94.3,,125.84,5,0.27,11.88,AD,,,,,,,,,,,,,,,,,,,,,,,,2462.22,1.27,15.43,83.1,0.15,0,0.04,0.11,1.16,2.98,9.4,3.05,3.48,47.45,14.83,0.15,17.34,0,0,,,,COASTAL,,3.57,4.90526
CH-S-039-203-95,POMONKEY CR UT1,95,C,S,CH,LP,203,2,Y,3/7/1995,Y,6/14/1995,38.652669,77.083689,298392,776098,2140102,Potomac River (Middle-tidal),19.7,7.9,6.89,6.16,112.1,127,165.55,3,0.2,16.16,AD,15,16,11,13,14,7,4,30,80,90,3,13,11,3,0,,PA,66,1.5,2.95,24.5,0.0775,0.7,1880.76,11.7,6.75,81.43,0.09,0,0.04,0.42,11.29,1.9,3.36,1.48,13.39,48.75,15,0.09,4.29,0,0,80.85,0,0,COASTAL,4.25,3.29,6.0202
CH-S-039-224-95,POMONKEY CR UT1,95,C,S,CH,LP,224,2,Y,3/10/1995,Y,6/22/1995,38.654561,77.075611,299078,778409,2140102,Potomac River (Middle-tidal),20.4,7.9,6.49,6.29,80.8,86,109.99,5,0.45,11.21,AD,7,13,8,8,10,8,7,20,50,80,6,12,1,1,2,FR,DI,34,1,2.3,20,0.075,0.22,1723.81,11.53,6.22,82.19,0.02,0,0.04,0.37,11.15,1.44,3.53,1.24,14.31,48.59,15.16,0.02,4.13,0,0,34.97,0,0,COASTAL,2,4.43,4
CH-S-044-303-95,GILBERT SWAMP RUN,95,C,S,CH,LP,303,3,Y,3/6/1995,Y,6/19/1995,38.441969,76.884189,221673,833172,2140107,Gilbert Swamp,20,8.7,6.96,6.19,94.4,121,192.78,1,0.68,14.52,AD,4,11,3,6,14,11,15,40,70,50,14,15,0,0,20,FR,DI,23,1.5,6.08,15,0.4,3.36,23209.37,5.21,33.5,59.95,0.21,0,1.11,0.65,4.56,13.24,14.61,5.65,8.56,33.19,13.69,0.21,4.52,0,0,13.03,0,0,COASTAL,3,3.86,4.45614
CH-S-062-313-95,ZEKIAH SWAMP RUN,95,C,S,CH,LP,313,3,Y,3/1/1995,Y,8/15/1995,38.521711,76.908731,250702,826113,2140108,Zekiah Swamp,23.6,2.5,6.52,6.59,112.9,103,82.72,5,0.51,13.88,AD,11,10,8,19,0,4,18,99,40,95,20,19,23,0,50,FR,FR,69,0.2,16.05,29.5,0,0.08,38346.14,9.36,27.6,60.35,0.26,1.88,0.54,0.93,8.42,6.57,17.16,3.87,8.16,28.48,12.83,0.26,10.87,0.28,1.6,71.77,0,0,COASTAL,4.25,3.29,4.76471
CH-S-080-222-95,MATTAWOMAN CR,95,C,S,CH,LP,222,2,Y,3/14/1995,Y,7/3/1995,38.601281,77.056819,279672,783762,2140111,Mattawoman Creek,18.9,1.8,5.94,5.75,63.2,95,39.95,4,0.13,11.74,AD,7,3,1,2,0,5,15,100,40,95,15,18,9,0,50,FR,FR,35,0.2,5,15,0,0,31253.76,10.57,18.56,66.95,0.37,3.18,0.38,1.61,8.96,4.98,10.38,3.21,7.75,35.36,12.16,0.37,11.68,0,3.18,6.96,0,0,COASTAL,1,2.43,6.42857
CH-S-086-217-95,PINEY BR,95,C,S,CH,LP,217,2,Y,3/28/1995,Y,6/13/1995,38.574911,76.87615,270089,835407,2140108,Zekiah Swamp,17.9,5.6,6.19,6.23,151.7,107,93.26,5,0.99,16.89,AD,15,9,8,17,16,10,17,80,98,80,1,1,2,4,5,FR,OF,120,1,4.88,59,0.2325,1.92,2253.88,12.8,29.38,55.88,0.36,0.63,0.86,0.91,11.9,7.62,18.37,3.38,13.72,23.29,14.22,0.36,4.65,0,0.63,71.77,0,0,COASTAL,4,4.43,3.92248
CH-S-089-205-95,WARDS RUN,95,C,S,CH,LP,205,2,Y,3/8/1995,Y,5/31/1995,38.514639,77.140689,248145,759742,2140110,Nanjemoy Creek,17.3,7.86,6.27,6.5,54.3,46,75.26,4,0.22,7.38,AD,15,11,12,14,11,6,7,60,95,92,3,11,8,2,5,FR,DI,87,1.5,4.2,43,0.13,0.84,3301.71,5.68,8.84,80.02,0.16,5.22,0.05,0.25,5.43,1.05,6.74,1.05,18.51,36.1,19.43,0.16,5.99,0,5.22,81.02,0,0,COASTAL,4.75,4.14,4.63333
CH-S-091-131-97,SWANSON CR UT1,97,C,S,CH,PX,131,1,Y,3/24/1997,Y,7/7/1997,38.554,76.774,262371,864567,2131101,Patuxent River (Lower),22.6,8.1,6.58,7.32,68.1,88,138.7,3.8,0.35,10.82,AD,7,5,11,11,11,5,7,100,70,45,13,17,8,0,50,FR,FR,62,0.7,1.4,11,0.125,0.61,1237.11,10.53,14.96,74.62,0,0,0,1.1,9.43,2.09,9.38,3.49,10.89,44.8,16.39,0,2.53,0,0,43.61,0,0,COASTAL,4.75,3.57,6.01639
CH-S-100-108-95,HILL TOP FORK NANJEMOY UT1,95,C,S,CH,LP,108,1,Y,3/2/1995,Y,5/31/1995,38.472261,77.153289,232718,756113,2140110,Nanjemoy Creek,17.9,7.8,6.52,6.95,112.4,78,132.01,3,0.39,8.59,AD,6,9,6,5,7,9,9,35,40,92,11,15,2,0,30,FR,OF,28,0.5,0.8,5.5,0.08,0.06,225.76,0,3.46,26.83,0,69.78,0,0,0,0.3,2.86,0.3,11.76,11.76,3.32,0,0,0,69.78,20.63,0,0,COASTAL,,3.57,4.66279
CH-S-105-119-95,JANE BERRYS RUN UT1,95,C,S,CH,LP,119,1,Y,3/8/1995,Y,5/31/1995,38.505269,77.170181,244748,751299,2140110,Nanjemoy Creek,14.5,7.91,5.9,6.21,55,44,107.5,7,0.28,5.32,AD,6,4,11,6,8,12,7,80,75,95,3,6,4,4,20,FR,DI,46,3,1.33,20,0.085,0.11,401.12,0.34,2.71,86.69,0,10.26,0,0,0.34,0.76,1.7,0.25,9.67,52.34,19.76,0,4.92,0,10.26,18.55,0,0,COASTAL,3.25,2.71,5.9434
CH-S-123-317-95,BEAVERDAM CR,95,C,S,CH,LP,317,3,Y,3/13/1995,Y,8/17/1995,38.420689,77.214081,213974,738664,2140110,Nanjemoy Creek,25.1,4.8,6.07,7.06,51.5,84,65.28,3,0,9.37,AD,13,11,11,16,6,7,5,65,75,92,7,10,11,5,50,FR,FR,80,0.5,5.23,42.25,0.01,0.24,9669.93,1.33,9.83,86.94,0.34,1.47,0.06,0.05,1.28,1.92,6.14,1.77,21.95,32.74,24.51,0.34,7.74,0.82,0.65,76.02,0,0,COASTAL,3,4.14,4.84706
CH-S-139-116-95,ZEKIAH SWAMP RUN,95,C,S,PG,LP,116,1,Y,2/28/1995,Y,6/21/1995,38.637039,76.789161,292758,860227,2140108,Zekiah Swamp,22.4,2.5,5.45,5.67,73.4,54,17.08,5,0.47,9.19,AD,6,2,3,7,7,5,17,90,70,50,16,18,10,0,50,FR,FR,30,0.3,3.7,18,0.015,0.15,1664.1,5.5,23.31,70.05,0.76,0.16,0.27,0.51,4.99,5.27,15.85,2.19,8.38,38.91,15.85,0.76,6.91,0,0.16,13.28,0,0,COASTAL,2.25,1.86,7.03448
CH-S-139-118-95,ZEKIAH SWAMP RUN,95,C,S,PG,LP,118,1,Y,2/28/1995,N,,38.666011,76.789769,303309,860028,2140108,Zekiah Swamp,,,6,,702,,2080,120,52.87,31.02,none,,,,,,,,,,,,,,,,,,,,,,,,70.27,45.03,19.84,34.85,0,0,0,4.35,40.67,9.68,6.29,3.87,1.45,22.76,4.84,0,5.81,0,0,,,,COASTAL,,1,
